[{"id":8,"merchant":"La Pasiva","category":"gastronomia","providers":["Santander"],"benefits":[{"provider":"Santander","product":"Platinum/Select/Private","amount":"25%","days":null,"conditions":null},{"provider":"Santander","product":"crédito/débito","amount":"15%","days":null,"conditions":null}],"es_cadena":true,"locations":[{"lat":-34.8817585,"lng":-56.0609107,"address":"Arocena 1644 esq. Schroeder, Carrasco, Montevideo, Uruguay","sucursal":"Carrasco","confidence":1,"precision":"exacta","source":"nominatim"},{"lat":-34.9145258,"lng":-56.1493969,"address":"Juan Benito Blanco 920 esq. Av. Brasil, Pocitos, Montevideo, Uruguay","sucursal":"Pocitos","confidence":0.9,"precision":"exacta","source":"nominatim"},{"lat":-34.9238107,"lng":-56.1587422,"address":"Ellauri 350, Local 117, Punta Carretas, Montevideo, Uruguay","sucursal":"Punta Carretas","confidence":0.9,"precision":"exacta","source":"nominatim"},{"lat":-34.9062334,"lng":-56.1942249,"address":"Av. 18 de Julio 1022, Centro, Montevideo, Uruguay","sucursal":"Centro","confidence":0.8,"precision":"exacta","source":"nominatim"},{"lat":-34.9061747,"lng":-56.1971731,"address":"Av. 18 de Julio 899, Centro, Montevideo, Uruguay","sucursal":"Centro","confidence":0.75,"precision":"exacta","source":"nominatim"},{"lat":-34.8937958,"lng":-56.1664023,"address":"Bulevar Artigas 1825, Local 66, Tres Cruces, Montevideo, Uruguay","sucursal":"Tres Cruces","confidence":0.85,"precision":"exacta","source":"nominatim"},{"lat":-34.9386497,"lng":-54.935057,"address":"Av. Roosevelt esq. Francisco Acuña de Figueroa, Maldonado, Uruguay","sucursal":"Maldonado","confidence":0.7,"precision":"exacta","source":"nominatim"},{"lat":-34.9642299,"lng":-54.9457943,"address":"Av. Gorlero esq. Calle 30, Punta del Este, Maldonado, Uruguay","sucursal":"Punta del Este","confidence":0.65,"precision":"exacta","source":"nominatim"},{"lat":-34.725783,"lng":-56.2018616,"address":"Bulevar del Bicentenario 318, Las Piedras, Canelones, Uruguay","sucursal":"Las Piedras","confidence":0.65,"precision":"exacta","source":"nominatim"}]},{"id":11,"merchant":"Disco","category":"supermercado","providers":["Santander"],"benefits":[{"provider":"Santander","product":"Hipermás Santander","amount":null,"days":null,"conditions":"Descuentos exclusivos cada mes del año con Hipermás"}],"es_cadena":true,"locations":[{"lat":-34.9027694,"lng":-56.1732046,"address":"Arenal Grande 1376, Cordón, Montevideo, Uruguay","sucursal":"Cordón (Arenal Grande)","confidence":0.9,"precision":"exacta","source":"nominatim"},{"lat":-34.8990703,"lng":-56.1776808,"address":"Av. Daniel Fernández Crespo 1727, Cordón, Montevideo, Uruguay","sucursal":"Cordón (Fernández Crespo)","confidence":0.9,"precision":"exacta","source":"nominatim"},{"lat":-34.8572729,"lng":-56.1324659,"address":"Av. 8 de Octubre 4786, Curva de Maroñas, Montevideo, Uruguay","sucursal":"Curva de Maroñas","confidence":0.9,"precision":"exacta","source":"nominatim"},{"lat":-34.8886481,"lng":-56.1789052,"address":"Cnel. Marcelino Sosa 2706, Villa Muñoz, Montevideo, Uruguay","sucursal":"Villa Muñoz","confidence":0.9,"precision":"zona","source":"nominatim"},{"lat":-34.8943266,"lng":-56.1448054,"address":"Ayacucho 3370, Buceo, Montevideo, Uruguay","sucursal":"Buceo (Ayacucho)","confidence":0.9,"precision":"exacta","source":"nominatim"},{"lat":-34.8678556,"lng":-55.2704563,"address":"Maldonado 1024, Centro, Montevideo, Uruguay","sucursal":"Centro (Maldonado)","confidence":0.9,"precision":"exacta","source":"nominatim"},{"lat":-34.9021589,"lng":-56.1867062,"address":"Ejido 1530, Centro, Montevideo, Uruguay","sucursal":"Centro (Ejido)","confidence":0.9,"source":"nominatim"},{"lat":-34.9031981,"lng":-56.1855509,"address":"Dr. Javier Barrios Amorín 859, Cordón, Montevideo, Uruguay","sucursal":"Cordón (Barrios Amorín)","confidence":0.9,"source":"nominatim"},{"lat":-34.8918384,"lng":-56.1252423,"address":"Av. Mcal. Fco. Solano López 1680, Buceo, Montevideo, Uruguay","sucursal":"Buceo (Solano López)","confidence":0.85,"precision":"exacta","source":"nominatim"},{"lat":-34.8759593,"lng":-56.1985402,"address":"Av. Agraciada 2986, Bella Vista, Montevideo, Uruguay","sucursal":"Bella Vista (Agraciada)","confidence":0.85,"source":"nominatim"},{"lat":-34.9238107,"lng":-56.1587422,"address":"Ellauri 350 esq. García Cortinas, Punta Carretas, Montevideo, Uruguay","sucursal":"Punta Carretas Shopping","confidence":0.9,"precision":"exacta","source":"nominatim"},{"lat":-34.9016191,"lng":-56.1632018,"address":"20 de Setiembre 1521, Punta Carretas, Montevideo, Uruguay","sucursal":"Punta Carretas (20 de Setiembre)","confidence":0.85,"source":"nominatim"},{"lat":-34.915274,"lng":-56.1558301,"address":"Dr. José Scoseria 2628, Pocitos, Montevideo, Uruguay","sucursal":"Pocitos (Scoseria)","confidence":0.85,"source":"nominatim"},{"lat":-34.9048421,"lng":-56.1607464,"address":"Obligado 966, Pocitos, Montevideo, Uruguay","sucursal":"Pocitos (Obligado)","confidence":0.85,"source":"nominatim"},{"lat":-34.8893286,"lng":-56.0984505,"address":"Av. Legrand 5085, Carrasco Norte, Montevideo, Uruguay","sucursal":"Carrasco Norte (Legrand)","confidence":0.8,"precision":"exacta","source":"nominatim"}]},{"id":23,"merchant":"Geant","category":"supermercado","providers":["Santander"],"benefits":[{"provider":"Santander","product":"Hipermás Santander","amount":null,"days":null,"conditions":"Descuentos exclusivos cada mes del año con Hipermás"}],"es_cadena":true,"locations":[{"lat":-34.8802271,"lng":-56.1542838,"address":"Av. Luis Alberto de Herrera 3401, La Blanqueada, Montevideo, Uruguay","sucursal":"Nuevocentro Shopping","confidence":0.9,"source":"nominatim"},{"lat":-34.8591365,"lng":-56.0217968,"address":"Av. Giannattasio y Av. a la Playa, Parque Roosevelt, Ciudad de la Costa, Canelones, Uruguay","sucursal":"Parque Roosevelt","confidence":0.6,"precision":"zona","source":"nominatim"}]},{"id":36,"merchant":"Devoto","category":"supermercado","providers":["Santander"],"benefits":[{"provider":"Santander","product":"Hipermás Santander","amount":null,"days":null,"conditions":"Descuentos exclusivos cada mes del año con Hipermás"}],"es_cadena":true,"locations":[{"lat":-34.8765368,"lng":-56.1437821,"address":"Av. 8 de Octubre 3621, Montevideo, Uruguay","sucursal":"8 de Octubre","confidence":0.9,"source":"nominatim"},{"lat":-34.9049546,"lng":-56.1835626,"address":"Av. 18 de Julio 1492, Cordón, Montevideo, Uruguay","sucursal":"Cordón (18 de Julio)","confidence":0.9,"source":"nominatim"},{"lat":-34.8926458,"lng":-56.1809538,"address":"Arenal Grande 2006, Montevideo, Uruguay","sucursal":"Arenal Grande","confidence":0.9,"source":"nominatim"},{"lat":-34.8937409,"lng":-56.1616915,"address":"Av. Italia 2484, Montevideo, Uruguay","sucursal":"Avenida Italia","confidence":0.9,"source":"nominatim"},{"lat":-34.9146131,"lng":-56.1496245,"address":"Benito Blanco 919, Pocitos, Montevideo, Uruguay","sucursal":"Pocitos (Benito Blanco)","confidence":0.9,"source":"nominatim"},{"lat":-34.906493,"lng":-56.1639105,"address":"Bulevar Artigas 1205, Montevideo, Uruguay","sucursal":"Bulevar y Canelones","confidence":0.9,"source":"nominatim"},{"lat":-34.869977,"lng":-56.0724472,"address":"Camino Carrasco 6955, Montevideo, Uruguay","sucursal":"Camino Carrasco","confidence":0.9,"source":"nominatim"},{"lat":-34.8931501,"lng":-56.0664118,"address":"Bolivia 1413, Carrasco, Montevideo, Uruguay","sucursal":"Carrasco","confidence":0.9,"source":"nominatim"},{"lat":-34.8052345,"lng":-56.2229343,"address":"Av. Garzón 1945, Colón, Montevideo, Uruguay","sucursal":"Colón","confidence":0.9,"source":"nominatim"},{"lat":-34.8978432,"lng":-56.1904843,"address":"Av. Libertador 1895, Montevideo, Uruguay","sucursal":"Centro (Libertador)","confidence":0.9,"source":"nominatim"},{"lat":-34.8950163,"lng":-56.1077867,"address":"Hipólito Yrigoyen 1444, Malvín, Montevideo, Uruguay","sucursal":"Malvín","confidence":0.9,"source":"nominatim"},{"lat":-34.8813448,"lng":-56.2662862,"address":"Av. de las Américas 6000, Montevideo, Uruguay","sucursal":"Portal Américas","confidence":0.9,"source":"nominatim"},{"lat":-34.8803924,"lng":-56.0808892,"address":"Av. Italia 5779, Montevideo, Uruguay","sucursal":"Portones","confidence":0.9,"source":"nominatim"},{"lat":-34.8935359,"lng":-56.0795988,"address":"General Paz 1404, Punta Gorda, Montevideo, Uruguay","sucursal":"Punta Gorda","confidence":0.9,"source":"nominatim"},{"lat":-34.8778204,"lng":-56.0573141,"address":"Av. Italia 6958, Montevideo, Uruguay","sucursal":"Santa Mónica","confidence":0.9,"source":"nominatim"}]},{"id":54,"merchant":"Farmashop","category":"salud","providers":["Santander"],"benefits":[{"provider":"Santander","product":"Farmacard","amount":"10%","days":"todos los días","conditions":null},{"provider":"Santander","product":"Farmacard","amount":"15%-25%","days":"martes, jueves y domingo","conditions":"Descuento varía según tarjeta y día"}],"es_cadena":true,"locations":[{"lat":-34.8778204,"lng":-56.0573141,"address":"Av. Italia 6958, Carrasco, Montevideo, Uruguay","sucursal":"Carrasco","confidence":0.95,"source":"nominatim"},{"lat":-34.9587952,"lng":-54.9400131,"address":"Av. Gorlero 993 esq. Calle 31, Península, Punta del Este, Uruguay","sucursal":"Punta del Este (Península)","confidence":0.95,"precision":"exacta","source":"nominatim"},{"lat":-34.893686,"lng":-56.1615819,"address":"Av. Italia 2490, Tres Cruces, Montevideo, Uruguay","sucursal":"Tres Cruces","confidence":0.9,"source":"nominatim"},{"lat":-34.913352,"lng":-56.1621461,"address":"21 de Setiembre 2453, Pocitos, Montevideo, Uruguay","sucursal":"Pocitos","confidence":0.85,"source":"nominatim"},{"lat":-34.9147294,"lng":-56.1514254,"address":"Bulevar España 2856, Pocitos, Montevideo, Uruguay","sucursal":"Pocitos","confidence":0.85,"source":"nominatim"},{"lat":-34.9237331,"lng":-56.159439,"address":"José Ellauri 350, Punta Carretas, Montevideo, Uruguay","sucursal":"Punta Carretas","confidence":0.85,"source":"nominatim"},{"lat":-34.9038575,"lng":-56.1807604,"address":"Av. 18 de Julio 1644, Cordón, Montevideo, Uruguay","sucursal":"Cordón","confidence":0.85,"source":"nominatim"},{"lat":-34.9226048,"lng":-56.159047,"address":"José Ellauri 411, Punta Carretas, Montevideo, Uruguay","sucursal":"Punta Carretas","confidence":0.8,"source":"nominatim"},{"lat":-34.8808914,"lng":-56.1499887,"address":"Av. 8 de Octubre 3268, Cordón, Montevideo, Uruguay","sucursal":"Cordón","confidence":0.8,"precision":"exacta","source":"nominatim"},{"lat":-34.8721969,"lng":-56.0993312,"address":"Camino Carrasco 4471, Carrasco, Montevideo, Uruguay","sucursal":"Carrasco","confidence":0.8,"source":"nominatim"},{"lat":-34.9054747,"lng":-56.1873241,"address":"Av. 18 de Julio 1331, Centro, Montevideo, Uruguay","sucursal":"Centro","confidence":0.8,"source":"nominatim"},{"lat":-34.9161293,"lng":-56.1585115,"address":"Luis Franzini 806, Punta Carretas, Montevideo, Uruguay","sucursal":"Punta Carretas","confidence":0.75,"source":"nominatim"},{"lat":-34.8967302,"lng":-56.1658886,"address":"Colonia 903 esq. Convención, Centro, Montevideo, Uruguay","sucursal":"Centro","confidence":0.7,"precision":"exacta","source":"nominatim"},{"lat":-34.9051257,"lng":-56.1842245,"address":"Av. 18 de Julio 1951, Centro, Montevideo, Uruguay","sucursal":"Centro","confidence":0.7,"source":"nominatim"},{"lat":-34.8865947,"lng":-56.1298338,"address":"Av. Italia 3815, Buceo, Montevideo, Uruguay","sucursal":"Buceo","confidence":0.7,"source":"nominatim"}]},{"id":69,"merchant":"McDonald's","category":"gastronomia","providers":["Club El País"],"benefits":[{"provider":"Club El País","product":"Club El País","amount":null,"days":"Todos los días","conditions":"Sundae de cortesía"}],"es_cadena":true,"locations":[{"lat":-34.9054252,"lng":-56.1867481,"address":"Av. 18 de Julio 1353, Centro, Montevideo, Uruguay","sucursal":"Centro (18 de Julio y Ejido)","confidence":0.9,"source":"nominatim"},{"lat":-34.9061783,"lng":-56.193399,"address":"Av. 18 de Julio 1056, Centro, Montevideo, Uruguay","sucursal":"Centro (18 de Julio y Río Negro)","confidence":0.9,"source":"nominatim"},{"lat":-34.8793734,"lng":-56.148297,"address":"Av. 8 de Octubre 3395, La Blanqueada, Montevideo, Uruguay","sucursal":"La Blanqueada (8 de Octubre)","confidence":0.9,"source":"nominatim"},{"lat":-34.9039336,"lng":-56.1638568,"address":"Bulevar Artigas 1454, Cordón, Montevideo, Uruguay","sucursal":"Cordón (Bulevar Artigas)","confidence":0.85,"source":"nominatim"},{"lat":-34.9071473,"lng":-56.2035932,"address":"Sarandí 558, Ciudad Vieja, Montevideo, Uruguay","sucursal":"Ciudad Vieja (Sarandí)","confidence":0.9,"source":"nominatim"},{"lat":-34.9030628,"lng":-56.1363655,"address":"Av. Luis Alberto de Herrera 1290, Pocitos, Montevideo, Uruguay","sucursal":"Montevideo Shopping","confidence":0.85,"source":"nominatim"},{"lat":-34.8804819,"lng":-56.0794302,"address":"Av. Italia 5775, Carrasco, Montevideo, Uruguay","sucursal":"Portones Shopping","confidence":0.85,"source":"nominatim"},{"lat":-34.8849245,"lng":-56.1504243,"address":"Av. Luis Alberto de Herrera 1720, La Blanqueada, Montevideo, Uruguay","sucursal":"Nuevocentro Shopping","confidence":0.8,"source":"nominatim"},{"lat":-34.8937958,"lng":-56.1664023,"address":"Bulevar Artigas 1825, Tres Cruces, Montevideo, Uruguay","sucursal":"Tres Cruces Shopping","confidence":0.85,"source":"nominatim"},{"lat":-34.9237331,"lng":-56.159439,"address":"José Ellauri 350, Punta Carretas, Montevideo, Uruguay","sucursal":"Punta Carretas Shopping","confidence":0.8,"source":"nominatim"},{"lat":-34.9642299,"lng":-54.9457943,"address":"Av. Gorlero esq. Calle 27, Punta del Este, Maldonado, Uruguay","sucursal":"Punta del Este (Gorlero)","confidence":0.9,"precision":"exacta","source":"nominatim"},{"lat":-34.9455275,"lng":-54.9367705,"address":"Av. Franklin D. Roosevelt Parada 6, Punta del Este, Maldonado, Uruguay","sucursal":"Punta del Este (Roosevelt Parada 6)","confidence":0.75,"precision":"calle-aprox","source":"nominatim"}]},{"id":55,"merchant":"Cauce","category":"gastronomia","providers":["Club El País","Itaú"],"benefits":[{"provider":"Club El País","product":"Club El País","amount":"20%","days":"Todos los días","conditions":null},{"provider":"Itaú","product":"crédito Itaú + débito Volar + débito Junior","amount":"15%","days":"todos los días","conditions":"Programa restaurantes Montevideo"},{"provider":"Itaú","product":"Platinum/Infinite/Black/Personal Bank","amount":"25%","days":"Todos los días","conditions":null}],"es_cadena":false,"locations":[{"lat":-34.9094042,"lng":-56.1417271,"address":"Rambla República del Perú 1371, Pocitos, Montevideo, Uruguay","sucursal":null,"confidence":1,"source":"nominatim"}]},{"id":58,"merchant":"Delishop","category":"gastronomia","providers":["Club El País","Itaú"],"benefits":[{"provider":"Club El País","product":"Club El País","amount":"20%","days":"Todos los días","conditions":null},{"provider":"Itaú","product":"crédito Itaú + débito Volar + débito Junior","amount":"15%","days":"todos los días","conditions":"Programa restaurantes Montevideo"},{"provider":"Itaú","product":"Platinum/Infinite/Black/Personal Bank","amount":"25%","days":"Todos los días","conditions":null}],"es_cadena":false,"locations":[{"lat":-34.9187569,"lng":-56.1509673,"address":"Benito Blanco 705, Punta Carretas, Montevideo, Uruguay","sucursal":null,"confidence":1,"source":"nominatim"}]},{"id":73,"merchant":"Sudestada","category":"gastronomia","providers":["Club El País","Itaú"],"benefits":[{"provider":"Club El País","product":"Club El País","amount":"20%","days":"Todos los días","conditions":null},{"provider":"Itaú","product":"crédito Itaú + débito Volar + débito Junior","amount":"15%","days":"todos los días","conditions":"Programa restaurantes Montevideo"},{"provider":"Itaú","product":"Platinum/Infinite/Black/Personal Bank","amount":"25%","days":"Todos los días","conditions":null}],"es_cadena":false,"locations":[{"lat":-34.9036873,"lng":-56.1357723,"address":"Dr. Luis Bonavita 1315, Buceo, Montevideo, Uruguay","sucursal":null,"confidence":1,"source":"nominatim"}]},{"id":232,"merchant":"Starbucks","category":"gastronomia","providers":["Itaú"],"benefits":[{"provider":"Itaú","product":"crédito","amount":"15%","days":null,"conditions":"en bebidas"},{"provider":"Itaú","product":"crédito Itaú + débito Volar + débito Junior","amount":"15%","days":"todos los días","conditions":"Programa restaurantes Montevideo"},{"provider":"Itaú","product":"crédito Itaú + débito Volar + débito Junior","amount":"15%","days":"todos los días","conditions":"Programa restaurantes Punta del Este"}],"es_cadena":true,"locations":[{"lat":-34.9030628,"lng":-56.1363655,"address":"Av. Luis Alberto de Herrera 1290, Pocitos, Montevideo, Uruguay","sucursal":"Montevideo Shopping","confidence":0.9,"source":"nominatim"},{"lat":-34.9237331,"lng":-56.159439,"address":"José Ellauri 350, Punta Carretas, Montevideo, Uruguay","sucursal":"Punta Carretas Shopping","confidence":0.85,"source":"nominatim"},{"lat":-34.8937958,"lng":-56.1664023,"address":"Bulevar Gral. Artigas 1825, Tres Cruces, Montevideo, Uruguay","sucursal":"Tres Cruces Shopping","confidence":0.9,"precision":"exacta","source":"nominatim"},{"lat":-34.8849245,"lng":-56.1504243,"address":"Av. Luis Alberto de Herrera 1720, La Blanqueada, Montevideo, Uruguay","sucursal":"Nuevocentro Shopping","confidence":0.8,"source":"nominatim"},{"lat":-34.8855774,"lng":-56.0581498,"address":"Av. Dr. Alfredo Arocena 1590, Carrasco, Montevideo, Uruguay","sucursal":"Carrasco (Arocena)","confidence":0.9,"precision":"zona","source":"nominatim"},{"lat":-34.8425811,"lng":-56.2590445,"address":"Peatonal Sarandí 640 esq. Bartolomé Mitre, Ciudad Vieja, Montevideo, Uruguay","sucursal":"Ciudad Vieja (Peatonal Sarandí)","confidence":0.9,"precision":"exacta","source":"nominatim"},{"lat":-34.9016537,"lng":-56.1648175,"address":"Palmar 2324 esq. Bulevar Gral. Artigas, Cordón, Montevideo, Uruguay","sucursal":"Cordón (La Española)","confidence":0.9,"precision":"exacta","source":"nominatim"},{"lat":-34.9062532,"lng":-56.1944983,"address":"Av. 18 de Julio 1002, Centro, Montevideo, Uruguay","sucursal":"Centro (18 de Julio)","confidence":0.7,"source":"nominatim"},{"lat":-34.8883644,"lng":-56.1479942,"address":"Av. Dr. Luis Alberto de Herrera 3365, Carrasco, Montevideo, Uruguay","sucursal":"Carrasco (Herrera)","confidence":0.6,"precision":"exacta","source":"nominatim"},{"lat":-34.9314356,"lng":-54.9428173,"address":"Av. Franklin D. Roosevelt esq. Pedragosa Sierra, Punta del Este, Maldonado, Uruguay","sucursal":"Punta del Este (Roosevelt)","confidence":0.8,"precision":"calle-aprox","source":"nominatim"}]},{"id":240,"merchant":"1921","category":"gastronomia","providers":["Itaú"],"benefits":[{"provider":"Itaú","product":"crédito Itaú + débito Volar + débito Junior","amount":"15%","days":"todos los días","conditions":"Programa restaurantes Montevideo"},{"provider":"Itaú","product":"Platinum/Infinite/Black/Personal Bank","amount":"25%","days":"Todos los días","conditions":null}],"es_cadena":false,"locations":[{"lat":-34.8910299,"lng":-56.0551734,"address":"Rambla República de México 6451, Carrasco, Montevideo, Uruguay","sucursal":null,"confidence":1,"source":"nominatim"}]},{"id":241,"merchant":"Artesia","category":"gastronomia","providers":["Itaú"],"benefits":[{"provider":"Itaú","product":"crédito Itaú + débito Volar + débito Junior","amount":"15%","days":"todos los días","conditions":"Programa restaurantes Montevideo"},{"provider":"Itaú","product":"Platinum/Infinite/Black/Personal Bank","amount":"25%","days":"Todos los días","conditions":null}],"es_cadena":false,"locations":[{"lat":-34.8896742,"lng":-56.0559358,"address":"Rostand 1555, Carrasco, Montevideo, Uruguay","sucursal":null,"confidence":0.9,"source":"nominatim"}]},{"id":242,"merchant":"Asencio","category":"gastronomia","providers":["Itaú"],"benefits":[{"provider":"Itaú","product":"crédito Itaú + débito Volar + débito Junior","amount":"15%","days":"todos los días","conditions":"Programa restaurantes Montevideo"},{"provider":"Itaú","product":"Platinum/Infinite/Black/Personal Bank","amount":"25%","days":"Todos los días","conditions":null}],"es_cadena":false,"locations":[{"lat":-34.8855774,"lng":-56.0581498,"address":"Av. Dr. Alfredo Arocena 1999, Carrasco, Montevideo, Uruguay","sucursal":null,"confidence":1,"precision":"zona","source":"nominatim"}]},{"id":243,"merchant":"Basílico","category":"gastronomia","providers":["Itaú"],"benefits":[{"provider":"Itaú","product":"crédito Itaú + débito Volar + débito Junior","amount":"15%","days":"todos los días","conditions":"Programa restaurantes Montevideo"},{"provider":"Itaú","product":"Platinum/Infinite/Black/Personal Bank","amount":"25%","days":"Todos los días","conditions":null}],"es_cadena":false,"locations":[{"lat":-34.8887889,"lng":-56.0574636,"address":"Av. Alfredo Arocena 1601, Carrasco, Montevideo, Uruguay","sucursal":null,"confidence":1,"source":"nominatim"}]},{"id":244,"merchant":"Bisiesto","category":"gastronomia","providers":["Itaú"],"benefits":[{"provider":"Itaú","product":"crédito Itaú + débito Volar + débito Junior","amount":"15%","days":"todos los días","conditions":"Programa restaurantes Montevideo"},{"provider":"Itaú","product":"Platinum/Infinite/Black/Personal Bank","amount":"25%","days":"Todos los días","conditions":null}],"es_cadena":false,"locations":[{"lat":-34.9153292,"lng":-56.1611874,"address":"Prudencio Vázquez y Vega 864, Punta Carretas, Montevideo, Uruguay","sucursal":"Punta Carretas","confidence":0.85,"source":"nominatim"}]},{"id":245,"merchant":"Brothaus","category":"gastronomia","providers":["Itaú"],"benefits":[{"provider":"Itaú","product":"crédito Itaú + débito Volar + débito Junior","amount":"15%","days":"todos los días","conditions":"Programa restaurantes Montevideo"}],"es_cadena":false,"locations":[{"lat":-34.9073491,"lng":-56.1456802,"address":"26 de Marzo 1399, Pocitos, Montevideo, Uruguay","sucursal":"Pocitos (principal)","confidence":0.85,"source":"nominatim"}]},{"id":246,"merchant":"Café Haus","category":"gastronomia","providers":["Itaú"],"benefits":[{"provider":"Itaú","product":"crédito Itaú + débito Volar + débito Junior","amount":"15%","days":"todos los días","conditions":"Programa restaurantes Montevideo"},{"provider":"Itaú","product":"Platinum/Infinite/Black/Personal Bank","amount":"25%","days":"Todos los días","conditions":null}],"es_cadena":false,"locations":[{"lat":-34.8954498,"lng":-56.1141417,"address":"Velsen 4040, Malvín, Montevideo, Uruguay","sucursal":"Malvín","confidence":0.6,"source":"nominatim"}]},{"id":247,"merchant":"Café Misterio","category":"gastronomia","providers":["Itaú"],"benefits":[{"provider":"Itaú","product":"crédito Itaú + débito Volar + débito Junior","amount":"15%","days":"todos los días","conditions":"Programa restaurantes Montevideo"},{"provider":"Itaú","product":"Platinum/Infinite/Black/Personal Bank","amount":"25%","days":"Todos los días","conditions":null}],"es_cadena":false,"locations":[{"lat":-34.885763,"lng":-56.0568033,"address":"Costa Rica 1700 esquina Rivera, Carrasco, Montevideo, Uruguay","sucursal":"Carrasco","confidence":0.9,"precision":"exacta","source":"nominatim"}]},{"id":248,"merchant":"Café Misterio (Carrasco)","category":"gastronomia","providers":["Itaú"],"benefits":[{"provider":"Itaú","product":"crédito Itaú + débito Volar + débito Junior","amount":"15%","days":"todos los días","conditions":"Programa restaurantes Montevideo"},{"provider":"Itaú","product":"Platinum/Infinite/Black/Personal Bank","amount":"25%","days":"Todos los días","conditions":null}],"es_cadena":false,"locations":[{"lat":-34.885763,"lng":-56.0568033,"address":"Costa Rica 1700 esquina Rivera, Carrasco, Montevideo, Uruguay","sucursal":"Carrasco","confidence":0.9,"precision":"exacta","source":"nominatim"}]},{"id":249,"merchant":"Santana Café","category":"gastronomia","providers":["Itaú"],"benefits":[{"provider":"Itaú","product":"crédito Itaú + débito Volar + débito Junior","amount":"15%","days":"todos los días","conditions":"Programa restaurantes Montevideo"}],"es_cadena":false,"locations":[{"lat":-34.8855774,"lng":-56.0581498,"address":"Avenida Doctor Alfredo Arocena 1996, Carrasco, Montevideo, Uruguay","sucursal":"Carrasco","confidence":0.85,"precision":"zona","source":"nominatim"}]},{"id":250,"merchant":"Café Valderrama","category":"gastronomia","providers":["Itaú"],"benefits":[{"provider":"Itaú","product":"crédito Itaú + débito Volar + débito Junior","amount":"15%","days":"todos los días","conditions":"Programa restaurantes Montevideo"}],"es_cadena":false,"locations":[{"lat":-34.889124,"lng":-56.0576588,"address":"Gabriel Otero 6437 esquina Cambará, Carrasco, Montevideo, Uruguay","sucursal":"Carrasco (complejo Obra)","confidence":0.8,"precision":"exacta","source":"nominatim"}]},{"id":251,"merchant":"Casa Dispensa","category":"gastronomia","providers":["Itaú"],"benefits":[{"provider":"Itaú","product":"crédito Itaú + débito Volar + débito Junior","amount":"15%","days":"todos los días","conditions":"Programa restaurantes Montevideo"},{"provider":"Itaú","product":"Platinum/Infinite/Black/Personal Bank","amount":"25%","days":"Todos los días","conditions":null}],"es_cadena":false,"locations":[]},{"id":252,"merchant":"Caudillo","category":"gastronomia","providers":["Itaú"],"benefits":[{"provider":"Itaú","product":"crédito Itaú + débito Volar + débito Junior","amount":"15%","days":"todos los días","conditions":"Programa restaurantes Montevideo"},{"provider":"Itaú","product":"Platinum/Infinite/Black/Personal Bank","amount":"25%","days":"Todos los días","conditions":null}],"es_cadena":false,"locations":[{"lat":-34.8605653,"lng":-56.1949078,"address":"Millán 3641, Atahualpa, Montevideo, Uruguay","sucursal":"Montevideo","confidence":0.6,"source":"nominatim"}]},{"id":253,"merchant":"Chesterhouse","category":"gastronomia","providers":["Itaú"],"benefits":[{"provider":"Itaú","product":"crédito Itaú + débito Volar + débito Junior","amount":"15%","days":"todos los días","conditions":"Programa restaurantes Montevideo"},{"provider":"Itaú","product":"Platinum/Infinite/Black/Personal Bank","amount":"25%","days":"Todos los días","conditions":null}],"es_cadena":true,"locations":[{"lat":-34.9024524,"lng":-56.2013934,"address":"Ciudadela 1397 casi Rincón, Ciudad Vieja, Montevideo, Uruguay","sucursal":"Ciudad Vieja (principal)","confidence":0.85,"precision":"calle","source":"nominatim"},{"lat":-34.9044039,"lng":-56.1361486,"address":"Av. Luis Alberto de Herrera 1248, Montevideo, Uruguay","sucursal":"WTC Torre 2","confidence":0.65,"precision":"exacta","source":"nominatim"},{"lat":-34.9044039,"lng":-56.1361486,"address":"Av. Luis Alberto de Herrera 1248, Montevideo, Uruguay","sucursal":"WTC Torre 4","confidence":0.6,"precision":"exacta","source":"nominatim"},{"lat":-34.7778799,"lng":-56.0548505,"address":"Ruta 8 Km 17.500, Montevideo, Uruguay","sucursal":"Zonamerica","confidence":0.65,"precision":"calle","source":"nominatim"}]},{"id":1,"merchant":"Óptica Estela Jinchuk","category":"salud","providers":["Santander"],"benefits":[{"provider":"Santander","product":"todas","amount":"15%","days":null,"conditions":null}],"es_cadena":false,"locations":[{"lat":-34.9100822,"lng":-56.1697776,"address":"Avenida Domingo Sarmiento 2494 esquina Franzini, Parque Rodó, Montevideo, Uruguay","sucursal":"Casa Central Sarmiento","confidence":0.9,"precision":"zona","source":"nominatim"}]},{"id":2,"merchant":"Iber","category":"tecnologia","providers":["Santander","Club El País"],"benefits":[{"provider":"Santander","product":"todas","amount":"15%","days":null,"conditions":null},{"provider":"Club El País","product":"Club El País","amount":"20%","days":"Lunes a Miércoles","conditions":null}],"es_cadena":true,"locations":[{"lat":-34.9020722,"lng":-56.1761148,"address":"Av. 18 de Julio 1852 esq. Eduardo Acevedo, Montevideo, Uruguay","sucursal":"18 de Julio (Eduardo Acevedo)","confidence":0.85,"precision":"exacta","source":"nominatim"},{"lat":-31.38889,"lng":-57.9608876,"address":"Salto Shopping, Local 113, Salto, Uruguay","sucursal":"Salto Shopping","confidence":0.85,"precision":"exacta","source":"nominatim"},{"lat":-34.9075516,"lng":-56.1890598,"address":"Soriano 1249 esq. Carlos Quijano, Montevideo, Uruguay","sucursal":"Soriano","confidence":0.85,"precision":"exacta","source":"nominatim"},{"lat":-34.8166979,"lng":-55.9783533,"address":"Costa Urbana Shopping, Ciudad de la Costa, Canelones, Uruguay","sucursal":"Costa Urbana Shopping","confidence":0.8,"precision":"exacta","source":"nominatim"},{"lat":-34.8937958,"lng":-56.1664023,"address":"Bulevar General Artigas 1825, Tres Cruces, Montevideo, Uruguay","sucursal":"Tres Cruces Shopping","confidence":0.85,"precision":"exacta","source":"nominatim"},{"lat":-34.8877043,"lng":-56.1845104,"address":"José L. Terra 2222, Montevideo, Uruguay","sucursal":"Mercado Agrícola de Montevideo","confidence":0.8,"precision":"exacta","source":"nominatim"},{"lat":-34.9202069,"lng":-56.1567063,"address":"Ellauri 1321, Punta Carretas, Montevideo, Uruguay","sucursal":"Iber House - Punta Carretas Shopping","confidence":0.8,"precision":"exacta","source":"nominatim"},{"lat":-34.7270127,"lng":-56.2207274,"address":"Las Piedras Shopping, Las Piedras, Canelones, Uruguay","sucursal":"Las Piedras Shopping","confidence":0.8,"precision":"exacta","source":"nominatim"},{"lat":-34.9455342,"lng":-54.9437874,"address":"Av. Roosevelt Parada 7, Playa Mansa, Punta del Este, Maldonado, Uruguay","sucursal":"IberHouse - Punta Shopping","confidence":0.8,"precision":"zona","source":"nominatim"},{"lat":-34.4693171,"lng":-57.8393269,"address":"Av. Franklin D. Roosevelt 458, Colonia del Sacramento, Colonia, Uruguay","sucursal":"Colonia Shopping","confidence":0.8,"precision":"calle-aprox","source":"nominatim"},{"lat":-34.8973204,"lng":-56.124991,"address":"Bulevar José Batlle y Ordóñez, Jacinto Vera, Montevideo, Uruguay","sucursal":"Nuevocentro Shopping","confidence":0.85,"precision":"exacta","source":"nominatim"},{"lat":-32.3217257,"lng":-58.0892136,"address":"Paysandú Shopping, Paysandú, Uruguay","sucursal":"Paysandú Shopping","confidence":0.8,"precision":"exacta","source":"nominatim"},{"lat":-33.2568759,"lng":-58.0282342,"address":"Don Bosco 734, Mercedes, Soriano, Uruguay","sucursal":"IberStore - Mercedes","confidence":0.75,"precision":"exacta","source":"nominatim"},{"lat":-34.8855774,"lng":-56.0581498,"address":"Av. Bolivia y Rambla República de México, Carrasco, Montevideo, Uruguay","sucursal":"IberStore - Portones Shopping","confidence":0.8,"precision":"zona","source":"nominatim"},{"lat":-34.9089247,"lng":-56.1793227,"address":"Terminal Minas Shopping, Minas, Lavalleja, Uruguay","sucursal":"IberPoint - Minas","confidence":0.75,"precision":"exacta","source":"nominatim"},{"lat":-34.9455275,"lng":-54.9367705,"address":"Av. Franklin D. Roosevelt Parada 22, Maldonado, Uruguay","sucursal":"IberStore - Atlántico Shopping","confidence":0.75,"precision":"calle-aprox","source":"nominatim"}]},{"id":3,"merchant":"Bruta","category":"gastronomia","providers":["Santander"],"benefits":[{"provider":"Santander","product":"Platinum/Select/Private","amount":"25%","days":null,"conditions":null},{"provider":"Santander","product":"crédito/débito","amount":"15%","days":null,"conditions":null}],"es_cadena":false,"locations":[{"lat":-34.9157895,"lng":-56.155992,"address":"Luis de la Torre 818, Punta Carretas, Montevideo, Uruguay","sucursal":"Punta Carretas","confidence":0.9,"source":"nominatim"}]},{"id":4,"merchant":"BIGG Fitness","category":"bienestar","providers":["Santander"],"benefits":[{"provider":"Santander","product":"Select","amount":"25%","days":null,"conditions":null},{"provider":"Santander","product":"crédito","amount":"15%","days":null,"conditions":null}],"es_cadena":false,"locations":[{"lat":-34.9134572,"lng":-56.147929,"address":"José Martí 3439 esquina Rambla, Pocitos, Montevideo, Uruguay","sucursal":"Pocitos (principal)","confidence":0.85,"precision":"exacta","source":"nominatim"}]},{"id":5,"merchant":"Mónaco Calzados","category":"calzado","providers":["Santander"],"benefits":[{"provider":"Santander","product":"todas","amount":"15%","days":null,"conditions":null}],"es_cadena":true,"locations":[{"lat":-31.7227254,"lng":-55.9906903,"address":"18 de Julio 227, Centro, Tacuarembó, Uruguay","sucursal":"Tacuarembó","confidence":0.9,"precision":"exacta","source":"nominatim"},{"lat":-30.4011326,"lng":-56.4656934,"address":"Av. Cnel. Carlos Lecueder 349, Centro, Artigas, Uruguay","sucursal":"Artigas","confidence":0.85,"precision":"exacta","source":"nominatim"}]},{"id":6,"merchant":"Heladería Lekker","category":"gastronomia","providers":["Santander"],"benefits":[{"provider":"Santander","product":"Infinite/Black/Select débito","amount":"50%","days":null,"conditions":null},{"provider":"Santander","product":"crédito/débito","amount":"30%","days":null,"conditions":null}],"es_cadena":false,"locations":[{"lat":-34.9050272,"lng":-56.1868211,"address":"Ejido 1380, Centro, Montevideo, Uruguay","sucursal":"Casa central","confidence":0.9,"source":"nominatim"}]},{"id":7,"merchant":"Nora Rey","category":"moda","providers":["Santander"],"benefits":[{"provider":"Santander","product":"Platinum/Select/Private","amount":"25%","days":null,"conditions":null},{"provider":"Santander","product":"crédito/débito","amount":"15%","days":null,"conditions":null}],"es_cadena":false,"locations":[{"lat":-34.9100882,"lng":-56.1498784,"address":"26 de Marzo 1153, Pocitos, Montevideo, Uruguay","sucursal":"Boutique Pocitos","confidence":0.6,"source":"nominatim"}]},{"id":9,"merchant":"Facal (Bar Facal)","category":"gastronomia","providers":["Santander"],"benefits":[{"provider":"Santander","product":"Platinum/Select/Private","amount":"25%","days":null,"conditions":null},{"provider":"Santander","product":"crédito/débito","amount":"15%","days":null,"conditions":null}],"es_cadena":false,"locations":[{"lat":-34.9056381,"lng":-56.1892753,"address":"Av. 18 de Julio 1249 esq. Yí, Centro, Montevideo, Uruguay","sucursal":"Casa central","confidence":0.95,"precision":"exacta","source":"nominatim"}]},{"id":32,"merchant":"Savia Café y Cultura","category":"gastronomia","providers":["Santander","Club El País"],"benefits":[{"provider":"Santander","product":"todas","amount":"15%","days":null,"conditions":null},{"provider":"Club El País","product":"Club El País","amount":"20%","days":"Lunes a Miércoles","conditions":null}],"es_cadena":false,"locations":[{"lat":-34.9052264,"lng":-56.1735819,"address":"Juan D. Jackson 1301 esq. Guaná, Cordón, Montevideo, Uruguay","sucursal":"Casa central","confidence":0.9,"precision":"exacta","source":"nominatim"}]},{"id":52,"merchant":"Columbia","category":"moda","providers":["Santander","Club El País"],"benefits":[{"provider":"Santander","product":"todas","amount":"15%","days":null,"conditions":null},{"provider":"Club El País","product":"Club El País","amount":"20%","days":"Lunes a Miércoles","conditions":null}],"es_cadena":false,"locations":[{"lat":-34.8874519,"lng":-56.1159562,"address":"Av. Italia 4346, Malvín, Montevideo, Uruguay","sucursal":"Tienda principal / Oficina central","confidence":0.9,"source":"nominatim"}]},{"id":56,"merchant":"Charo Cocina y Café","category":"gastronomia","providers":["Club El País"],"benefits":[{"provider":"Club El País","product":"Club El País","amount":"20%","days":"Todos los días","conditions":null}],"es_cadena":false,"locations":[{"lat":-34.8925184,"lng":-56.0575907,"address":"Rambla República de México 6363, Carrasco, Montevideo, Uruguay","sucursal":"Casa central (Casa Viasono)","confidence":0.9,"source":"nominatim"}]},{"id":57,"merchant":"Del Carmen","category":"gastronomia","providers":["Club El País"],"benefits":[{"provider":"Club El País","product":"Club El País","amount":"20%","days":"Todos los días","conditions":null}],"es_cadena":false,"locations":[{"lat":-34.4691512,"lng":-57.8486165,"address":"Washington Barbot 283, Colonia del Sacramento, Colonia, Uruguay","sucursal":"Colonia del Sacramento","confidence":0.75,"precision":"exacta","source":"nominatim"}]},{"id":411,"merchant":"Burger King","category":"gastronomia","providers":["OCA"],"benefits":[{"provider":"OCA","product":"crédito/débito","amount":null,"days":null,"conditions":"20% de dto. de lunes a jueves en Burger King con tarjetas de crédito"}],"es_cadena":true,"locations":[{"lat":-34.9057131,"lng":-56.1871781,"address":"Av. 18 de Julio 1350 esq. Ejido, Centro, Montevideo, Uruguay","sucursal":"18 de Julio y Ejido","confidence":0.95,"precision":"exacta","source":"nominatim"},{"lat":-34.9056261,"lng":-56.1865706,"address":"Av. 18 de Julio 1034, Centro, Montevideo, Uruguay","sucursal":"18 de Julio y Río Negro","confidence":0.95,"source":"nominatim"},{"lat":-34.8770789,"lng":-56.1438557,"address":"Av. 8 de Octubre 3604 esq. Pernas, La Blanqueada, Montevideo, Uruguay","sucursal":"Av. 8 de Octubre","confidence":0.95,"precision":"exacta","source":"nominatim"},{"lat":-34.886531,"lng":-56.1401249,"address":"Av. Italia 4386 esq. Caldas, Malvín, Montevideo, Uruguay","sucursal":"Av. Italia y Caldas","confidence":0.95,"precision":"exacta","source":"nominatim"},{"lat":-34.903859,"lng":-56.1379491,"address":"Plácido Ellauri 3494 esq. Luis Alberto de Herrera, Buceo, Montevideo, Uruguay","sucursal":"Av. L. A. Herrera Drive","confidence":0.9,"precision":"exacta","source":"nominatim"},{"lat":-34.9035174,"lng":-56.1779314,"address":"Bv. Artigas 1522 esq. Palmar, Cordón, Montevideo, Uruguay","sucursal":"Av. Palmar","confidence":0.95,"precision":"zona","source":"nominatim"},{"lat":-34.8946269,"lng":-56.1648361,"address":"Av. Italia 2877, Tres Cruces, Montevideo, Uruguay","sucursal":"Clínicas","confidence":0.9,"source":"nominatim"},{"lat":-34.8875173,"lng":-56.1806197,"address":"Arenal Grande 2246, La Comercial, Montevideo, Uruguay","sucursal":"La Comercial","confidence":0.9,"precision":"exacta","source":"nominatim"},{"lat":-34.8557622,"lng":-56.2204494,"address":"Av. Agraciada 4252, Paso Molino, Montevideo, Uruguay","sucursal":"Paso Molino","confidence":0.9,"source":"nominatim"},{"lat":-34.8684338,"lng":-56.1695721,"address":"Luis Alberto de Herrera 3365, Nivel 2 Local 231, La Blanqueada, Montevideo, Uruguay","sucursal":"Shopping Nuevocentro","confidence":0.9,"precision":"exacta","source":"nominatim"},{"lat":-34.8804819,"lng":-56.0794302,"address":"Av. Italia 5775, Carrasco, Montevideo, Uruguay","sucursal":"Shopping Portones","confidence":0.9,"source":"nominatim"},{"lat":-34.9237331,"lng":-56.159439,"address":"José Ellauri 350, Nivel 3, Punta Carretas, Montevideo, Uruguay","sucursal":"Shopping Punta Carretas","confidence":0.9,"precision":"exacta","source":"nominatim"},{"lat":-34.888355,"lng":-56.2599252,"address":"Bv. Gral. Artigas 1825, Nivel 2, Tres Cruces, Montevideo, Uruguay","sucursal":"Shopping Tres Cruces","confidence":0.9,"precision":"calle-aprox","source":"nominatim"},{"lat":-34.9642299,"lng":-54.9457943,"address":"Av. Gorlero esq. Calle 27, Península, Punta del Este, Maldonado, Uruguay","sucursal":"Punta del Este - Gorlero","confidence":0.85,"precision":"exacta","source":"nominatim"},{"lat":-34.8409218,"lng":-55.9942945,"address":"Av. Giannattasio Km 21, Ciudad de la Costa, Canelones, Uruguay","sucursal":"Shopping Costa Urbana","confidence":0.85,"source":"nominatim"}]},{"id":412,"merchant":"Bela (Pañalería y Perfumería)","category":"gastronomia","providers":["OCA"],"benefits":[{"provider":"OCA","product":"crédito/débito","amount":null,"days":null,"conditions":"20% de dto. todos los viernes con tarjetas de crédito en Bela"}],"es_cadena":true,"locations":[{"lat":-34.8986985,"lng":-56.1779198,"address":"Fernández Crespo 1696 esq. Av. Uruguay, Cordón, Montevideo, Uruguay","sucursal":"Fernández Crespo","confidence":0.75,"precision":"exacta","source":"nominatim"},{"lat":-34.8571489,"lng":-56.2192996,"address":"Av. Agraciada 4159, Paso Molino, Montevideo, Uruguay","sucursal":"Agraciada","confidence":0.75,"source":"nominatim"},{"lat":-31.7118448,"lng":-55.9803591,"address":"Gral. José Gervasio Artigas 863 esq. Solís, Montevideo, Uruguay","sucursal":"Gral. Artigas / Solís","confidence":0.7,"precision":"exacta","source":"nominatim"},{"lat":-34.888355,"lng":-56.2599252,"address":"Bv. Gral. Artigas 1825, Nivel 2 Local 220, Tres Cruces, Montevideo, Uruguay","sucursal":"Tres Cruces Shopping","confidence":0.8,"precision":"calle-aprox","source":"nominatim"},{"lat":-34.8810617,"lng":-56.150906,"address":"Av. 8 de Octubre 3800, La Blanqueada, Montevideo, Uruguay","sucursal":"Av. 8 de Octubre","confidence":0.7,"source":"nominatim"},{"lat":-34.8255209,"lng":-56.1410893,"address":"Av. José Belloni 4281, Piedras Blancas, Montevideo, Uruguay","sucursal":"Piedras Blancas / José Belloni","confidence":0.7,"source":"nominatim"}]},{"id":414,"merchant":"TaTa","category":"supermercado","providers":["OCA"],"benefits":[{"provider":"OCA","product":"crédito/débito","amount":null,"days":null,"conditions":"20% de dto. de lunes a viernes en categorías seleccionadas con tarjetas de crédito en TaTa"}],"es_cadena":true,"locations":[{"lat":-34.9058685,"lng":-56.1884551,"address":"Av. 18 de Julio 1280, Centro, Montevideo, Uruguay","sucursal":"18 de Julio / Centro","confidence":0.85,"source":"nominatim"},{"lat":-34.904736,"lng":-56.1773162,"address":"José Enrique Rodó 1802, Cordón, Montevideo, Uruguay","sucursal":"Rodó","confidence":0.85,"source":"nominatim"},{"lat":-34.8561378,"lng":-56.2197657,"address":"Av. Agraciada 4214, Paso Molino, Montevideo, Uruguay","sucursal":"Paso Molino","confidence":0.85,"source":"nominatim"},{"lat":-34.8728098,"lng":-56.2017859,"address":"Av. Agraciada 2560, Bella Vista, Montevideo, Uruguay","sucursal":"Agraciada / Bella Vista","confidence":0.75,"source":"nominatim"},{"lat":-34.8765944,"lng":-56.1856408,"address":"Gral. San Martín 2700, Reducto, Montevideo, Uruguay","sucursal":"Gral. San Martín","confidence":0.7,"precision":"exacta","source":"nominatim"},{"lat":-34.8860486,"lng":-56.1044738,"address":"Av. Italia 3796, Malvín, Montevideo, Uruguay","sucursal":"Av. Italia","confidence":0.7,"source":"nominatim"},{"lat":-34.8495705,"lng":-56.2018238,"address":"Bv. José Batlle y Ordóñez 1703, Montevideo, Uruguay","sucursal":"Batlle y Ordóñez","confidence":0.7,"precision":"calle-aprox","source":"nominatim"},{"lat":-34.8231427,"lng":-56.1407818,"address":"Av. José Belloni 4393, Piedras Blancas, Montevideo, Uruguay","sucursal":"José Belloni","confidence":0.7,"source":"nominatim"},{"lat":-34.8960201,"lng":-56.1217991,"address":"Av. Gral. Rivera 4250, Malvín, Montevideo, Uruguay","sucursal":"Gral. Rivera","confidence":0.7,"precision":"exacta","source":"nominatim"},{"lat":-34.907689,"lng":-56.1767793,"address":"Canelones 888, Cordón, Montevideo, Uruguay","sucursal":"Canelones","confidence":0.7,"source":"nominatim"},{"lat":-34.87785,"lng":-56.1413119,"address":"Comercio 2445, Unión, Montevideo, Uruguay","sucursal":"Comercio","confidence":0.75,"source":"nominatim"},{"lat":-34.892518,"lng":-56.1671127,"address":"Bv. Gral. Artigas 1825, Tres Cruces, Montevideo, Uruguay","sucursal":"Tres Cruces Shopping","confidence":0.75,"precision":"zona","source":"nominatim"}]},{"id":425,"merchant":"Firestone (RASA)","category":"hogar","providers":["OCA"],"benefits":[{"provider":"OCA","product":"crédito/débito","amount":null,"days":null,"conditions":"20% de dto. + 12 cuotas* en dólares con tarjetas de crédito en Firestone"}],"es_cadena":true,"locations":[{"lat":-34.8790625,"lng":-56.1961266,"address":"Av. Agraciada 2720, Reducto, Montevideo, Uruguay","sucursal":"Casa Central","confidence":0.9,"source":"nominatim"},{"lat":-34.8763664,"lng":-56.0464481,"address":"Av. Italia 5686, Carrasco, Montevideo, Uruguay","sucursal":"Sucursal Portones","confidence":0.9,"source":"nominatim"},{"lat":-34.8971162,"lng":-56.1813045,"address":"La Paz 1320, Centro, Montevideo, Uruguay","sucursal":"Sucursal Centro","confidence":0.9,"source":"nominatim"}]},{"id":10,"merchant":"Parador El Paso","category":"gastronomia","providers":["Santander"],"benefits":[{"provider":"Santander","product":"Platinum/Select/Private","amount":"25%","days":null,"conditions":null},{"provider":"Santander","product":"crédito/débito","amount":"15%","days":null,"conditions":null}],"es_cadena":false,"locations":[{"lat":-31.6124467,"lng":-55.8589766,"address":"Ruta 5 km 252, Paso de los Toros, Tacuarembó, Uruguay","sucursal":"Paso de los Toros","confidence":0.8,"precision":"exacta","source":"nominatim"}]},{"id":12,"merchant":"SuÓptica","category":"salud","providers":["Santander"],"benefits":[{"provider":"Santander","product":"todas","amount":"15%","days":null,"conditions":null}],"es_cadena":true,"locations":[{"lat":-32.3699484,"lng":-54.1685764,"address":"Aparicio Saravia 684, Melo, Cerro Largo, Uruguay","sucursal":"Melo - Aparicio Saravia","confidence":0.85,"precision":"exacta","source":"nominatim"},{"lat":-32.3690769,"lng":-54.1675915,"address":"18 de Julio 731, Melo, Cerro Largo, Uruguay","sucursal":"Melo - 18 de Julio","confidence":0.6,"precision":"exacta","source":"nominatim"},{"lat":-32.5115495,"lng":-54.5180515,"address":"Ricardo Echenique 1078, Fraile Muerto, Cerro Largo, Uruguay","sucursal":"Fraile Muerto","confidence":0.6,"precision":"exacta","source":"nominatim"}]},{"id":13,"merchant":"Merrell Uruguay","category":"calzado","providers":["Santander","Club El País"],"benefits":[{"provider":"Santander","product":"todas","amount":"15%","days":null,"conditions":null},{"provider":"Club El País","product":"Club El País","amount":"20%","days":"Lunes a Miércoles","conditions":null}],"es_cadena":true,"locations":[{"lat":-34.9030628,"lng":-56.1363655,"address":"Luis Alberto de Herrera 1290, Local 284, Montevideo, Uruguay","sucursal":"Montevideo Shopping","confidence":0.85,"precision":"exacta","source":"nominatim"},{"lat":-34.9237331,"lng":-56.159439,"address":"José Ellauri 350, Punta Carretas Shopping, Montevideo, Uruguay","sucursal":"Punta Carretas Shopping","confidence":0.85,"precision":"exacta","source":"nominatim"},{"lat":-34.8812008,"lng":-56.0808727,"address":"Av. Italia 5775, Local 249, Montevideo, Uruguay","sucursal":"Portones Shopping","confidence":0.85,"precision":"exacta","source":"nominatim"},{"lat":-34.9081093,"lng":-54.9575785,"address":"Sarandí 874, Maldonado, Uruguay","sucursal":"Maldonado","confidence":0.7,"precision":"exacta","source":"nominatim"},{"lat":-32.3102096,"lng":-58.0695971,"address":"Bvar. Artigas esq. 25 de Mayo, Paysandú, Uruguay","sucursal":"Paysandú","confidence":0.7,"precision":"exacta","source":"nominatim"}]},{"id":14,"merchant":"Magnolio Sala","category":"entretenimiento","providers":["Santander"],"benefits":[{"provider":"Santander","product":"todas","amount":null,"days":null,"conditions":"Descuento sujeto a promociones"}],"es_cadena":false,"locations":[{"lat":-34.9032661,"lng":-56.1713309,"address":"Pablo de María 1015, Parque Rodó, Montevideo, Uruguay","sucursal":"Parque Rodó","confidence":0.95,"precision":"calle","source":"nominatim"}]},{"id":15,"merchant":"Nona","category":"gastronomia","providers":["Santander"],"benefits":[{"provider":"Santander","product":"Platinum/Select/Private","amount":"25%","days":null,"conditions":null},{"provider":"Santander","product":"crédito/débito","amount":"15%","days":null,"conditions":null}],"es_cadena":false,"locations":[{"lat":-34.8897315,"lng":-56.0551862,"address":"Costa Rica 1555, Montevideo, Uruguay","sucursal":"Nona","confidence":0.55,"precision":"exacta","source":"nominatim"}]},{"id":16,"merchant":"Tienda Ezquerra","category":"otros","providers":["Santander"],"benefits":[{"provider":"Santander","product":"todas","amount":"15%","days":null,"conditions":null}],"es_cadena":false,"locations":[{"lat":-31.724104,"lng":-55.993633,"address":"25 de Mayo 325 esq. Catalina, Tacuarembó, Uruguay","sucursal":"Tacuarembó","confidence":0.75,"precision":"exacta","source":"nominatim"}]},{"id":17,"merchant":"Kave Home","category":"hogar","providers":["Santander"],"benefits":[{"provider":"Santander","product":"todas","amount":"15%","days":null,"conditions":null}],"es_cadena":true,"locations":[{"lat":-34.9120358,"lng":-56.1485701,"address":"Alejandro Chucarro 1100, Pocitos, Montevideo, Uruguay","sucursal":"Casa Central (Pocitos)","confidence":0.85,"precision":"exacta","source":"nominatim"},{"lat":-34.9626143,"lng":-54.9421305,"address":"Calle 20 esq. Calle 30, Punta del Este, Maldonado, Uruguay","sucursal":"Calle 20 - Punta del Este","confidence":0.85,"precision":"exacta","source":"nominatim"}]},{"id":18,"merchant":"Renart Libros","category":"otros","providers":["Santander"],"benefits":[{"provider":"Santander","product":"todas","amount":"15%","days":null,"conditions":null}],"es_cadena":false,"locations":[{"lat":-34.888817,"lng":-56.1590151,"address":"Av. 8 de Octubre 2738, Parque Batlle, Montevideo, Uruguay","sucursal":"Sede única (Universidad Católica)","confidence":0.75,"precision":"exacta","source":"nominatim"}]},{"id":19,"merchant":"Extreme Force","category":"bienestar","providers":["Santander"],"benefits":[{"provider":"Santander","product":"todas","amount":"15%","days":null,"conditions":null}],"es_cadena":true,"locations":[{"lat":-34.9046222,"lng":-56.1825414,"address":"Av. 18 de Julio 1540, Montevideo, Uruguay","sucursal":"Centro","confidence":0.9,"precision":"exacta","source":"nominatim"},{"lat":-34.915417,"lng":-56.1575843,"address":"Dr. Scoseria 2548, Punta Carretas, Montevideo, Uruguay","sucursal":"Punta Carretas","confidence":0.9,"precision":"exacta","source":"nominatim"}]},{"id":20,"merchant":"Rotunda","category":"moda","providers":["Santander"],"benefits":[{"provider":"Santander","product":"todas","amount":"15%","days":null,"conditions":null}],"es_cadena":true,"locations":[{"lat":-34.9237331,"lng":-56.159439,"address":"José Ellauri 350, Punta Carretas, Montevideo, Uruguay","sucursal":"Punta Carretas","confidence":0.85,"source":"nominatim"},{"lat":-34.8868419,"lng":-56.0581363,"address":"Av. Alfredo Arocena 1680, Carrasco, Montevideo, Uruguay","sucursal":"Carrasco","confidence":0.85,"precision":"exacta","source":"nominatim"},{"lat":-34.9030628,"lng":-56.1363655,"address":"Av. Luis Alberto de Herrera 1290, Montevideo, Uruguay","sucursal":"Montevideo Shopping","confidence":0.85,"precision":"exacta","source":"nominatim"},{"lat":-34.906385,"lng":-56.2016889,"address":"Sarandí 671, Ciudad Vieja, Montevideo, Uruguay","sucursal":"Ciudad Vieja Garage","confidence":0.8,"precision":"exacta","source":"nominatim"},{"lat":-34.8889844,"lng":-56.0530334,"address":"Gabriel Otero 6590, Montevideo, Uruguay","sucursal":"Otero Garage","confidence":0.75,"precision":"exacta","source":"nominatim"},{"lat":-34.9626143,"lng":-54.9421305,"address":"Calle 20 esq. Calle 27, Punta del Este, Maldonado, Uruguay","sucursal":"Calle 20 - Punta del Este","confidence":0.8,"precision":"exacta","source":"nominatim"},{"lat":-34.874324,"lng":-55.1170325,"address":"Ruta 10 esq. Las Estrellas, La Barra, Maldonado, Uruguay","sucursal":"La Barra","confidence":0.8,"precision":"exacta","source":"nominatim"},{"lat":-31.3884716,"lng":-57.9561771,"address":"Uruguay 620, Salto, Uruguay","sucursal":"Salto","confidence":0.75,"precision":"exacta","source":"nominatim"}]},{"id":21,"merchant":"Balcony Shop","category":"hogar","providers":["Santander"],"benefits":[{"provider":"Santander","product":"todas","amount":"15%","days":null,"conditions":null}],"es_cadena":true,"locations":[{"lat":-34.8863181,"lng":-56.0551405,"address":"Potosí 1666, Carrasco, Montevideo, Uruguay","sucursal":"Carrasco","confidence":0.75,"precision":"exacta","source":"nominatim"},{"lat":-34.7856512,"lng":-55.2395952,"address":"Ruta 10 y Costanera, La Barra, Maldonado, Uruguay","sucursal":"La Barra / Manantiales","confidence":0.75,"precision":"calle","source":"nominatim"}]},{"id":22,"merchant":"La Rural (Melo)","category":"gastronomia","providers":["Santander"],"benefits":[{"provider":"Santander","product":"Platinum/Select/Private","amount":"25%","days":null,"conditions":null},{"provider":"Santander","product":"crédito/débito","amount":"15%","days":null,"conditions":null}],"es_cadena":false,"locations":[{"lat":-32.3693669,"lng":-54.1699075,"address":"Gral. Justino Muñiz 703, Melo, Cerro Largo, Uruguay","sucursal":"Melo","confidence":0.8,"precision":"exacta","source":"nominatim"}]},{"id":24,"merchant":"Óptica Lombardi","category":"salud","providers":["Santander"],"benefits":[{"provider":"Santander","product":"todas","amount":"15%","days":null,"conditions":null}],"es_cadena":false,"locations":[{"lat":-33.3782861,"lng":-56.5236179,"address":"18 de Julio 515, Durazno, Uruguay","sucursal":"Casa Central","confidence":0.85,"precision":"exacta","source":"nominatim"}]},{"id":25,"merchant":"Smart Megajuguetería","category":"ninos","providers":["Santander"],"benefits":[{"provider":"Santander","product":"todas","amount":"15%","days":null,"conditions":null}],"es_cadena":true,"locations":[{"lat":-34.9030628,"lng":-56.1363655,"address":"Av. Luis Alberto de Herrera 1290, Montevideo, Uruguay","sucursal":"Montevideo Shopping","confidence":0.8,"precision":"exacta","source":"nominatim"}]},{"id":26,"merchant":"Shoe Express","category":"calzado","providers":["Santander"],"benefits":[{"provider":"Santander","product":"todas","amount":"15%","days":null,"conditions":null}],"es_cadena":true,"locations":[{"lat":-34.8887889,"lng":-56.1813232,"address":"Arenal Grande 2178, Montevideo, Uruguay","sucursal":"Arenal Grande","confidence":0.55,"precision":"exacta","source":"nominatim"},{"lat":-34.8790098,"lng":-56.1472435,"address":"Av. 8 de Octubre 3430, Montevideo, Uruguay","sucursal":"8 de Octubre","confidence":0.55,"precision":"exacta","source":"nominatim"},{"lat":-34.8580097,"lng":-56.2178276,"address":"Av. Agraciada 4116, Montevideo, Uruguay","sucursal":"Agraciada","confidence":0.5,"precision":"exacta","source":"nominatim"},{"lat":-34.887033,"lng":-56.1482077,"address":"Dionisio Oribe 3090, Montevideo, Uruguay","sucursal":"Dionisio Oribe","confidence":0.45,"precision":"exacta","source":"nominatim"}]},{"id":27,"merchant":"Crêpas (Crêpes & Jugos Naturales)","category":"gastronomia","providers":["Santander","Itaú"],"benefits":[{"provider":"Santander","product":"Platinum/Select/Private","amount":"25%","days":null,"conditions":null},{"provider":"Santander","product":"crédito/débito","amount":"15%","days":null,"conditions":null},{"provider":"Itaú","product":"crédito Itaú + débito Volar + débito Junior","amount":"15%","days":"todos los días","conditions":"Programa restaurantes Punta del Este"}],"es_cadena":true,"locations":[{"lat":-34.9665348,"lng":-54.9458325,"address":"Calle 27 (Los Muergos) entre Gorlero y El Foque, Punta del Este, Maldonado, Uruguay","sucursal":"Punta del Este","confidence":0.9,"precision":"calle","source":"nominatim"},{"lat":-34.9237331,"lng":-56.159439,"address":"José Ellauri 350, Paseo Gourmet, Punta Carretas, Montevideo, Uruguay","sucursal":"Punta Carretas Shopping","confidence":0.9,"precision":"exacta","source":"nominatim"},{"lat":-34.8879936,"lng":-56.0579885,"address":"Av. Arocena 1556, Carrasco, Montevideo, Uruguay","sucursal":"Carrasco","confidence":0.8,"precision":"exacta","source":"nominatim"},{"lat":-34.8448208,"lng":-54.6376934,"address":"Saíz Martínez y Los Cisnes, José Ignacio, Maldonado, Uruguay","sucursal":"José Ignacio","confidence":0.8,"precision":"zona","source":"nominatim"},{"lat":-34.874324,"lng":-55.1170325,"address":"Ruta 10 esquina Las Estrellas, La Barra, Maldonado, Uruguay","sucursal":"La Barra","confidence":0.8,"precision":"exacta","source":"nominatim"}]},{"id":28,"merchant":"Indian","category":"moda","providers":["Santander"],"benefits":[{"provider":"Santander","product":"todas","amount":"15%","days":null,"conditions":null}],"es_cadena":true,"locations":[{"lat":-34.8637368,"lng":-56.1762178,"address":"Luis A. de Herrera 1290, Local 163, Montevideo, Uruguay","sucursal":"Montevideo Shopping","confidence":0.8,"precision":"calle-aprox","source":"nominatim"},{"lat":-34.9238107,"lng":-56.1587422,"address":"Ellauri 350, Locales 1244 y 1245, Montevideo, Uruguay","sucursal":"Punta Carretas Shopping","confidence":0.8,"precision":"exacta","source":"nominatim"},{"lat":-34.8812008,"lng":-56.0808727,"address":"Av. Italia 5775, Local 227-228, Montevideo, Uruguay","sucursal":"Portones Shopping","confidence":0.8,"precision":"exacta","source":"nominatim"},{"lat":-34.9114063,"lng":-56.1631369,"address":"Bvar. Artigas 1867, Local 44, Montevideo, Uruguay","sucursal":"Tres Cruces","confidence":0.8,"precision":"exacta","source":"nominatim"},{"lat":-34.8637368,"lng":-56.1762178,"address":"Av. Luis A. de Herrera 3365, Local 252-253-254, Montevideo, Uruguay","sucursal":"Nuevocentro Shopping","confidence":0.8,"precision":"calle-aprox","source":"nominatim"},{"lat":-34.9038759,"lng":-56.1814792,"address":"18 de Julio 1601 esquina Roxlo, Montevideo, Uruguay","sucursal":"18 de Julio y Roxlo","confidence":0.8,"precision":"exacta","source":"nominatim"},{"lat":-34.9026094,"lng":-56.1782062,"address":"18 de Julio 1763 esquina Gaboto, Montevideo, Uruguay","sucursal":"18 de Julio y Gaboto","confidence":0.8,"precision":"exacta","source":"nominatim"},{"lat":-34.858335,"lng":-56.2179469,"address":"Agraciada 4115 esquina M. Sagasta, Montevideo, Uruguay","sucursal":"Agraciada","confidence":0.8,"precision":"exacta","source":"nominatim"},{"lat":-34.9010454,"lng":-56.1737897,"address":"Arenal Grande 2147, Montevideo, Uruguay","sucursal":"Arenal Grande","confidence":0.8,"precision":"exacta","source":"nominatim"},{"lat":-34.9642299,"lng":-54.9457943,"address":"Av. Gorlero 993 y Calle 31, Punta del Este, Maldonado, Uruguay","sucursal":"Punta del Este (Gorlero)","confidence":0.8,"precision":"calle","source":"nominatim"},{"lat":-34.9123239,"lng":-54.9575067,"address":"Sarandí 935, Maldonado, Uruguay","sucursal":"Maldonado (Sarandí)","confidence":0.8,"precision":"exacta","source":"nominatim"},{"lat":-31.3875036,"lng":-57.9643936,"address":"Uruguay 869, Salto, Uruguay","sucursal":"Salto","confidence":0.8,"precision":"exacta","source":"nominatim"},{"lat":-32.3169116,"lng":-58.0856676,"address":"18 de Julio 1121, Paysandú, Uruguay","sucursal":"Paysandú","confidence":0.8,"precision":"exacta","source":"nominatim"},{"lat":-34.4693171,"lng":-57.8393269,"address":"Av. Franklin D. Roosevelt 458, Colonia del Sacramento, Colonia, Uruguay","sucursal":"Colonia del Sacramento","confidence":0.8,"precision":"calle-aprox","source":"nominatim"}]},{"id":29,"merchant":"Fivisa","category":"moda","providers":["Santander"],"benefits":[{"provider":"Santander","product":"todas","amount":"15%","days":null,"conditions":null}],"es_cadena":true,"locations":[{"lat":-34.9029598,"lng":-56.1887506,"address":"Avda. Uruguay 1280, Montevideo, Uruguay","sucursal":"Casa Central","confidence":0.85,"precision":"exacta","source":"nominatim"},{"lat":-34.8746134,"lng":-56.1542676,"address":"Bvar. José Batlle y Ordoñez 3207 esq. Emilio Raña, Montevideo, Uruguay","sucursal":"Mercado Modelo","confidence":0.85,"precision":"exacta","source":"nominatim"},{"lat":-34.8604638,"lng":-56.2293459,"address":"Av. Carlos María Ramírez 452 esq. Celestino Bauzá, Montevideo, Uruguay","sucursal":"Carlos María Ramírez","confidence":0.85,"precision":"exacta","source":"nominatim"},{"lat":-34.7351463,"lng":-56.2237529,"address":"Dr. Enrique Pouey 547, Las Piedras, Canelones, Uruguay","sucursal":"Las Piedras","confidence":0.85,"precision":"exacta","source":"nominatim"},{"lat":-34.8563113,"lng":-56.010973,"address":"Av. Giannattasio Km 23.500, Solymar, Canelones, Uruguay","sucursal":"Solymar","confidence":0.85,"precision":"calle","source":"nominatim"},{"lat":-33.2484204,"lng":-58.0298671,"address":"Av. Juan A. Lavalleja 532, Mercedes, Soriano, Uruguay","sucursal":"Mercedes","confidence":0.85,"precision":"zona","source":"nominatim"},{"lat":-34.4644442,"lng":-57.839442,"address":"Soriano 500, Colonia del Sacramento, Colonia, Uruguay","sucursal":"Colonia del Sacramento","confidence":0.85,"precision":"exacta","source":"nominatim"},{"lat":-31.3861361,"lng":-57.966639,"address":"Brasil 699, Salto, Uruguay","sucursal":"Salto","confidence":0.85,"precision":"exacta","source":"nominatim"},{"lat":-31.7155496,"lng":-55.9775305,"address":"Ituzaingó 321, Tacuarembó, Uruguay","sucursal":"Tacuarembó","confidence":0.85,"precision":"exacta","source":"nominatim"},{"lat":-34.9068926,"lng":-54.9589364,"address":"18 de Julio 933, Maldonado, Uruguay","sucursal":"Maldonado","confidence":0.85,"precision":"exacta","source":"nominatim"},{"lat":-34.9455275,"lng":-54.9367705,"address":"Av. Roosevelt Parada 7 esquina Marsella, Punta del Este, Maldonado, Uruguay","sucursal":"Punta del Este","confidence":0.85,"precision":"calle-aprox","source":"nominatim"},{"lat":-32.3178071,"lng":-58.0764625,"address":"Av. España 1413, Paysandú, Uruguay","sucursal":"Paysandú","confidence":0.85,"precision":"exacta","source":"nominatim"},{"lat":-33.3830076,"lng":-56.5245987,"address":"Manuel Oribe 700 esquina Arrospide, Durazno, Uruguay","sucursal":"Durazno","confidence":0.85,"precision":"exacta","source":"nominatim"},{"lat":-34.3357503,"lng":-56.7141934,"address":"Luis Batlle Berres 596, San José de Mayo, San José, Uruguay","sucursal":"San José de Mayo","confidence":0.85,"precision":"exacta","source":"nominatim"},{"lat":-30.9054075,"lng":-55.5481426,"address":"Av. Presidente Viera 1065, Rivera, Uruguay","sucursal":"Rivera","confidence":0.85,"precision":"calle-aprox","source":"nominatim"}]},{"id":30,"merchant":"Isidora Restaurant","category":"gastronomia","providers":["Santander"],"benefits":[{"provider":"Santander","product":"Platinum/Select/Private","amount":"25%","days":null,"conditions":null},{"provider":"Santander","product":"crédito/débito","amount":"15%","days":null,"conditions":null}],"es_cadena":false,"locations":[{"lat":-34.9631102,"lng":-54.9437979,"address":"Rambla Gral. José Artigas esq. Calle 21 (La Galerna), Punta del Este, Maldonado, Uruguay","sucursal":"Punta del Este","confidence":0.75,"precision":"calle-aprox","source":"nominatim"}]},{"id":31,"merchant":"Oscar Restaurant","category":"gastronomia","providers":["Santander"],"benefits":[{"provider":"Santander","product":"Platinum/Select/Private","amount":"25%","days":null,"conditions":null},{"provider":"Santander","product":"crédito/débito","amount":"15%","days":null,"conditions":null}],"es_cadena":false,"locations":[{"lat":-34.9687703,"lng":-54.9526909,"address":"Calle 8 (El Trinquete) esq. Calle 11 (Juan Díaz de Solís), Punta del Este, Maldonado, Uruguay","sucursal":"Punta del Este","confidence":0.8,"precision":"exacta","source":"nominatim"}]},{"id":33,"merchant":"De Arcos","category":"hogar","providers":["Santander"],"benefits":[{"provider":"Santander","product":"todas","amount":"15%","days":null,"conditions":null}],"es_cadena":false,"locations":[{"lat":-34.8864888,"lng":-56.055051,"address":"Potosí 1658, Montevideo, Uruguay","sucursal":"De Arcos","confidence":0.7,"precision":"exacta","source":"nominatim"}]},{"id":34,"merchant":"Príncipes del Sur","category":"gastronomia","providers":["Santander"],"benefits":[{"provider":"Santander","product":"Platinum/Select/Private","amount":"25%","days":null,"conditions":null},{"provider":"Santander","product":"crédito/débito","amount":"15%","days":null,"conditions":null}],"es_cadena":false,"locations":[{"lat":-33.2484204,"lng":-58.0298671,"address":"Gral. Eusebio Giménez 747 esq. Artigas, Mercedes, Soriano, Uruguay","sucursal":"Mercedes - Central","confidence":0.8,"precision":"zona","source":"nominatim"}]},{"id":35,"merchant":"Oriundo (wine bar)","category":"gastronomia","providers":["Santander"],"benefits":[{"provider":"Santander","product":"Platinum/Select/Private","amount":"25%","days":null,"conditions":null},{"provider":"Santander","product":"crédito/débito","amount":"15%","days":null,"conditions":null}],"es_cadena":false,"locations":[{"lat":-34.9105017,"lng":-56.1705697,"address":"Dr. Pablo de María 1013, Montevideo, Uruguay","sucursal":"Montevideo","confidence":0.85,"precision":"exacta","source":"nominatim"}]},{"id":37,"merchant":"Lemon","category":"hogar","providers":["Santander"],"benefits":[{"provider":"Santander","product":"todas","amount":"15%","days":null,"conditions":null}],"es_cadena":true,"locations":[{"lat":-34.8883644,"lng":-56.1479942,"address":"Av. Dr. Luis Alberto de Herrera 3365, Montevideo, Uruguay","sucursal":"Nuevocentro Shopping","confidence":0.75,"precision":"exacta","source":"nominatim"},{"lat":-34.8880741,"lng":-56.1480269,"address":"Av. Dr. Luis Alberto de Herrera 1290, Montevideo, Uruguay","sucursal":"Montevideo Shopping","confidence":0.75,"precision":"exacta","source":"nominatim"},{"lat":-34.9237331,"lng":-56.159439,"address":"José Ellauri 350, Montevideo, Uruguay","sucursal":"Punta Carretas Shopping","confidence":0.75,"source":"nominatim"},{"lat":-34.8937958,"lng":-56.1664023,"address":"Bulevar General Artigas 1825, Montevideo, Uruguay","sucursal":"Tres Cruces Shopping","confidence":0.75,"source":"nominatim"},{"lat":-34.9056475,"lng":-56.1895061,"address":"18 de Julio 1231, Montevideo, Uruguay","sucursal":"18 de Julio & Yí","confidence":0.7,"precision":"exacta","source":"nominatim"},{"lat":-34.9054612,"lng":-56.2024077,"address":"Bartolomé Mitre 649, Montevideo, Uruguay","sucursal":"Ciudad Vieja","confidence":0.7,"precision":"exacta","source":"nominatim"},{"lat":-34.8812008,"lng":-56.0808727,"address":"Av. Italia 5775, Montevideo, Uruguay","sucursal":"Portones Shopping","confidence":0.75,"precision":"exacta","source":"nominatim"},{"lat":-34.8409218,"lng":-55.9942945,"address":"Av. Giannattasio Km 21, Ciudad de la Costa, Canelones, Uruguay","sucursal":"Costa Urbana Shopping","confidence":0.75,"source":"nominatim"},{"lat":-34.725783,"lng":-56.2018616,"address":"Bulevar del Bicentenario 318, Las Piedras, Canelones, Uruguay","sucursal":"Las Piedras Shopping","confidence":0.75,"precision":"exacta","source":"nominatim"},{"lat":-34.4703163,"lng":-57.8454402,"address":"General Flores 435, Colonia del Sacramento, Colonia, Uruguay","sucursal":"Colonia","confidence":0.75,"precision":"exacta","source":"nominatim"},{"lat":-33.377274,"lng":-56.5263702,"address":"18 de Julio 384, Durazno, Uruguay","sucursal":"Durazno","confidence":0.75,"precision":"exacta","source":"nominatim"},{"lat":-31.3884716,"lng":-57.9561771,"address":"Uruguay 744, Salto, Uruguay","sucursal":"Salto","confidence":0.75,"precision":"exacta","source":"nominatim"},{"lat":-34.3394344,"lng":-56.71197,"address":"Sarandí 541, San José de Mayo, San José, Uruguay","sucursal":"San José","confidence":0.75,"precision":"exacta","source":"nominatim"},{"lat":-32.318179,"lng":-58.0827487,"address":"Leandro Gómez 1157, Paysandú, Uruguay","sucursal":"Paysandú","confidence":0.7,"precision":"exacta","source":"nominatim"},{"lat":-32.3691011,"lng":-54.1673857,"address":"18 de Julio 730, Melo, Cerro Largo, Uruguay","sucursal":"Melo","confidence":0.7,"precision":"exacta","source":"nominatim"}]},{"id":38,"merchant":"Hush Puppies","category":"calzado","providers":["Santander","Club El País"],"benefits":[{"provider":"Santander","product":"todas","amount":"15%","days":null,"conditions":null},{"provider":"Club El País","product":"Club El País","amount":"20%","days":"Lunes a Miércoles","conditions":null}],"es_cadena":true,"locations":[{"lat":-34.9030628,"lng":-56.1363655,"address":"Luis Alberto de Herrera 1290, Montevideo, Uruguay","sucursal":"Montevideo Shopping","confidence":0.8,"source":"nominatim"},{"lat":-34.9237331,"lng":-56.159439,"address":"José Ellauri 350, Nivel 2, Punta Carretas Shopping, Montevideo, Uruguay","sucursal":"Punta Carretas Shopping","confidence":0.75,"precision":"exacta","source":"nominatim"},{"lat":-34.8937958,"lng":-56.1664023,"address":"Bulevar General Artigas 1825, Local 164, Montevideo, Uruguay","sucursal":"Tres Cruces Shopping","confidence":0.7,"precision":"exacta","source":"nominatim"},{"lat":-34.8812008,"lng":-56.0808727,"address":"Av. Italia 5775, Local 264, Montevideo, Uruguay","sucursal":"Portones Shopping","confidence":0.7,"precision":"exacta","source":"nominatim"},{"lat":-34.8684338,"lng":-56.1695721,"address":"Luis Alberto de Herrera 3365, Local 217, Montevideo, Uruguay","sucursal":"Nuevocentro Shopping","confidence":0.7,"precision":"exacta","source":"nominatim"},{"lat":-34.8409218,"lng":-55.9942945,"address":"Av. Giannattasio Km 21, Local 276, Ciudad de la Costa, Canelones, Uruguay","sucursal":"Costa Urbana Shopping","confidence":0.7,"precision":"exacta","source":"nominatim"},{"lat":-34.9455342,"lng":-54.9437874,"address":"Av. Roosevelt y Parada 7, Playa Mansa, Punta del Este, Maldonado, Uruguay","sucursal":"Punta Shopping","confidence":0.6,"precision":"zona","source":"nominatim"},{"lat":-34.4659351,"lng":-57.8346651,"address":"Av. Roosevelt 458, Local 21, Colonia del Sacramento, Colonia, Uruguay","sucursal":"Colonia Shopping","confidence":0.65,"precision":"exacta","source":"nominatim"}]},{"id":39,"merchant":"ML Center","category":"otros","providers":["Santander"],"benefits":[{"provider":"Santander","product":"todas","amount":"15%","days":null,"conditions":null}],"es_cadena":true,"locations":[{"lat":-34.8954811,"lng":-56.1768551,"address":"Dr. Salvador Ferrer Serra 1909, Montevideo, Uruguay","sucursal":"Casa Central","confidence":0.6,"precision":"exacta","source":"nominatim"},{"lat":-34.8193486,"lng":-55.9831857,"address":"Ruta Interbalnearia y Camino de los Horneros, Ciudad de la Costa, Canelones, Uruguay","sucursal":"Car One","confidence":0.6,"precision":"calle-aprox","source":"nominatim"}]},{"id":40,"merchant":"Parador Posto 5","category":"gastronomia","providers":["Santander"],"benefits":[{"provider":"Santander","product":"Platinum/Select/Private","amount":"25%","days":null,"conditions":null},{"provider":"Santander","product":"crédito/débito","amount":"15%","days":null,"conditions":null}],"es_cadena":false,"locations":[{"lat":-34.9453947,"lng":-54.9361404,"address":"Parada 5, Playa Mansa, Rambla Dr. Claudio Williman, Punta del Este, Maldonado, Uruguay","sucursal":"Punta del Este","confidence":0.85,"precision":"exacta","source":"nominatim"}]},{"id":41,"merchant":"Café del Sol","category":"gastronomia","providers":["Santander"],"benefits":[{"provider":"Santander","product":"Platinum/Select/Private","amount":"25%","days":null,"conditions":null},{"provider":"Santander","product":"crédito/débito","amount":"15%","days":null,"conditions":null}],"es_cadena":false,"locations":[{"lat":-34.9023227,"lng":-56.1302873,"address":"Nicolás N. Piaggio 1155, Montevideo, Uruguay","sucursal":"Café del Sol","confidence":0.55,"precision":"calle-aprox","source":"nominatim"}]},{"id":42,"merchant":"Porto Vanila","category":"gastronomia","providers":["Santander"],"benefits":[{"provider":"Santander","product":"Platinum/Select/Private","amount":"25%","days":null,"conditions":null},{"provider":"Santander","product":"crédito/débito","amount":"15%","days":null,"conditions":null}],"es_cadena":true,"locations":[{"lat":-34.9161755,"lng":-56.1493196,"address":"Doctor José Scoseria 2942, Pocitos, Montevideo, Uruguay","sucursal":"Pocitos","confidence":0.7,"precision":"exacta","source":"nominatim"},{"lat":-34.8899348,"lng":-56.0565434,"address":"Arocena 1558, Carrasco, Montevideo, Uruguay","sucursal":"Carrasco (Arocena)","confidence":0.65,"precision":"exacta","source":"nominatim"},{"lat":-34.8751663,"lng":-56.0389564,"address":"Av. Italia 7519 esquina Barradas, Carrasco, Montevideo, Uruguay","sucursal":"Carrasco Norte","confidence":0.6,"precision":"exacta","source":"nominatim"},{"lat":-34.8812008,"lng":-56.0808727,"address":"Av. Italia 5775, Nivel 1, Montevideo, Uruguay","sucursal":"Portones Shopping","confidence":0.65,"precision":"exacta","source":"nominatim"},{"lat":-34.9455342,"lng":-54.9437874,"address":"Av. Roosevelt y Parada 7, Playa Mansa, Punta del Este, Maldonado, Uruguay","sucursal":"Punta del Este","confidence":0.65,"precision":"zona","source":"nominatim"}]},{"id":43,"merchant":"Los Leños","category":"gastronomia","providers":["Santander"],"benefits":[{"provider":"Santander","product":"Platinum/Select/Private","amount":"25%","days":null,"conditions":null},{"provider":"Santander","product":"crédito/débito","amount":"15%","days":null,"conditions":null}],"es_cadena":false,"locations":[{"lat":-34.907178,"lng":-56.196619,"address":"San José 909, Centro, Montevideo, Uruguay","sucursal":"Centro","confidence":0.8,"precision":"exacta","source":"nominatim"}]},{"id":44,"merchant":"Trattoria (Tres Cruces Shopping)","category":"gastronomia","providers":["Santander"],"benefits":[{"provider":"Santander","product":"Platinum/Select/Private","amount":"25%","days":null,"conditions":null},{"provider":"Santander","product":"crédito/débito","amount":"15%","days":null,"conditions":null}],"es_cadena":false,"locations":[{"lat":-34.8937958,"lng":-56.1664023,"address":"Bulevar Gral. Artigas 1825, Local Tres Cruces Shopping, Tres Cruces, Montevideo, Uruguay","sucursal":"Principal","confidence":0.4,"precision":"exacta","source":"nominatim"}]},{"id":45,"merchant":"Pizzorno Family Estates","category":"gastronomia","providers":["Santander"],"benefits":[{"provider":"Santander","product":"Platinum/Select/Private","amount":"25%","days":null,"conditions":null},{"provider":"Santander","product":"crédito/débito","amount":"15%","days":null,"conditions":null}],"es_cadena":false,"locations":[{"lat":-34.7141075,"lng":-56.1700481,"address":"Ruta 32 Km. 23, Las Piedras, Canelones, Uruguay","sucursal":"Principal","confidence":0.85,"precision":"exacta","source":"nominatim"}]},{"id":46,"merchant":"Vivero Los Suspiros","category":"hogar","providers":["Santander"],"benefits":[{"provider":"Santander","product":"Puntos Soy Santander","amount":null,"days":null,"conditions":"Canje de puntos"}],"es_cadena":false,"locations":[{"lat":-33.2484204,"lng":-58.0298671,"address":"Camino Maua, zona Aparicio Saravia, Mercedes, Departamento de Soriano, Uruguay","sucursal":"Principal","confidence":0.5,"precision":"ciudad","source":"nominatim"}]},{"id":47,"merchant":"Nicolini (Nicolini Hogar / Equipamientos)","category":"hogar","providers":["Santander"],"benefits":[{"provider":"Santander","product":"todas","amount":"15%","days":null,"conditions":null}],"es_cadena":false,"locations":[{"lat":-32.3173372,"lng":-58.0829931,"address":"18 de Julio 1134, Paysandú, Uruguay","sucursal":"Centro (Casa Central)","confidence":0.6,"precision":"exacta","source":"nominatim"},{"lat":-32.3189014,"lng":-58.068511,"address":"Av. República Argentina 1755, Paysandú, Uruguay","sucursal":"Sucursal Hogar","confidence":0.6,"precision":"exacta","source":"nominatim"}]},{"id":48,"merchant":"Viasono","category":"hogar","providers":["Santander","Club El País"],"benefits":[{"provider":"Santander","product":"todas","amount":"15%","days":null,"conditions":null},{"provider":"Club El País","product":"Club El País","amount":"20%","days":"Lunes a Miércoles","conditions":null}],"es_cadena":false,"locations":[{"lat":-34.8979014,"lng":-56.0635506,"address":"Rambla de México 6363 esq. Puntas de Santiago, Montevideo, Uruguay","sucursal":"Casa Matriz","confidence":0.8,"precision":"calle","source":"nominatim"},{"lat":-34.9167251,"lng":-56.1492688,"address":"Rambla República del Perú 809 esq. Plaza Gomensoro, Pocitos, Montevideo, Uruguay","sucursal":"Pocitos","confidence":0.75,"precision":"exacta","source":"nominatim"},{"lat":-34.8806377,"lng":-56.0757114,"address":"Av. Italia 6190, Carrasco, Montevideo, Uruguay","sucursal":"Carrasco","confidence":0.7,"precision":"exacta","source":"nominatim"}]},{"id":49,"merchant":"La Cigale (heladería/café)","category":"gastronomia","providers":["Santander"],"benefits":[{"provider":"Santander","product":"Select débito","amount":"50%","days":null,"conditions":null},{"provider":"Santander","product":"débito","amount":"30%","days":null,"conditions":null}],"es_cadena":false,"locations":[{"lat":-34.910882,"lng":-56.1452956,"address":"Juan Benito Blanco 1196, Pocitos, Montevideo, Uruguay","sucursal":"Pocitos (Benito Blanco)","confidence":0.7,"precision":"exacta","source":"nominatim"},{"lat":-34.8999979,"lng":-56.1694379,"address":"Requena 1550, Cordón, Montevideo, Uruguay","sucursal":"Cordón","confidence":0.65,"precision":"exacta","source":"nominatim"},{"lat":-34.90572,"lng":-56.1906913,"address":"18 de Julio 1179, Centro, Montevideo, Uruguay","sucursal":"Plaza Cagancha","confidence":0.65,"precision":"exacta","source":"nominatim"}]},{"id":50,"merchant":"Las Nazarenas","category":"gastronomia","providers":["Santander"],"benefits":[{"provider":"Santander","product":"todas","amount":"15%","days":null,"conditions":null}],"es_cadena":false,"locations":[{"lat":-32.370356,"lng":-54.1592777,"address":"Luis A. de Herrera 612, Melo, Cerro Largo, Uruguay","sucursal":"Melo","confidence":0.5,"precision":"calle-aprox","source":"nominatim"}]},{"id":51,"merchant":"Mis Petates","category":"ninos","providers":["Santander","Club El País"],"benefits":[{"provider":"Santander","product":"todas","amount":"15%","days":null,"conditions":null},{"provider":"Club El País","product":"Club El País","amount":"20%","days":"Lunes a Miércoles","conditions":null}],"es_cadena":false,"locations":[{"lat":-34.8852328,"lng":-56.1686489,"address":"Cagancha 2316 esq. Bulevar Artigas, Montevideo, Uruguay","sucursal":"Casa Central (Cagancha)","confidence":0.75,"precision":"exacta","source":"nominatim"},{"lat":-34.8937958,"lng":-56.1664023,"address":"Bulevar General Artigas 1825, Tres Cruces, Montevideo, Uruguay","sucursal":"Shopping Tres Cruces","confidence":0.7,"precision":"exacta","source":"nominatim"},{"lat":-34.9237331,"lng":-56.159439,"address":"José Ellauri 350, Punta Carretas, Montevideo, Uruguay","sucursal":"Punta Carretas Shopping","confidence":0.7,"source":"nominatim"}]},{"id":53,"merchant":"Late","category":"gastronomia","providers":["Santander"],"benefits":[{"provider":"Santander","product":"Platinum/Select/Private","amount":"25%","days":null,"conditions":null},{"provider":"Santander","product":"crédito/débito","amount":"15%","days":null,"conditions":null}],"es_cadena":false,"locations":[{"lat":-34.944535,"lng":-54.9428641,"address":"Parada 7, Playa Mansa, Punta del Este, Maldonado, Uruguay","sucursal":"Punta del Este","confidence":0.75,"precision":"exacta","source":"nominatim"}]},{"id":59,"merchant":"deVino","category":"gastronomia","providers":["Club El País"],"benefits":[{"provider":"Club El País","product":"Club El País","amount":"20%","days":"Todos los días","conditions":null}],"es_cadena":false,"locations":[]},{"id":60,"merchant":"Il Baretto","category":"gastronomia","providers":["Club El País","Itaú"],"benefits":[{"provider":"Club El País","product":"Club El País","amount":"20%","days":"Todos los días","conditions":null},{"provider":"Itaú","product":"crédito Itaú + débito Volar + débito Junior","amount":"15%","days":"todos los días","conditions":"Programa restaurantes Punta del Este"}],"es_cadena":false,"locations":[{"lat":-34.9665309,"lng":-54.9515193,"address":"Calle 9 (La Salina) esq. Calle 10 (2 de Febrero), Altos del Puerto, Punta del Este, Uruguay","sucursal":"Principal","confidence":0.9,"precision":"exacta","source":"nominatim"}]},{"id":61,"merchant":"Il Belvedere Hotel & Restaurante","category":"gastronomia","providers":["Club El País","Itaú"],"benefits":[{"provider":"Club El País","product":"Club El País","amount":"20%","days":"Todos los días","conditions":null},{"provider":"Itaú","product":"crédito Itaú + débito Volar + débito Junior","amount":"15%","days":"todos los días","conditions":"Programa restaurantes Punta del Este"}],"es_cadena":false,"locations":[{"lat":-34.9517422,"lng":-54.9288438,"address":"Rambla Lorenzo Batlle esq. Calle Da Vinci, Parada 29, Playa Brava, Punta del Este, Uruguay","sucursal":"Principal","confidence":0.85,"precision":"exacta","source":"nominatim"}]},{"id":62,"merchant":"Kakao Chocolates","category":"gastronomia","providers":["Club El País"],"benefits":[{"provider":"Club El País","product":"Club El País","amount":"20%","days":"Todos los días","conditions":null}],"es_cadena":false,"locations":[{"lat":-34.9262128,"lng":-56.1611766,"address":"Ingeniero García de Zúñiga 2368, Punta Carretas, Montevideo, Uruguay","sucursal":"Principal","confidence":0.85,"precision":"zona","source":"nominatim"}]},{"id":63,"merchant":"La Carola tapas y vinos","category":"gastronomia","providers":["Club El País"],"benefits":[{"provider":"Club El País","product":"Club El País","amount":"20%","days":"Todos los días","conditions":null}],"es_cadena":false,"locations":[{"lat":-34.9112755,"lng":-56.1665015,"address":"Avenida Gonzalo Ramírez 2225 esq. H. Reissig, Parque Rodó, Montevideo, Uruguay","sucursal":"Principal","confidence":0.8,"precision":"exacta","source":"nominatim"}]},{"id":64,"merchant":"La Corniche","category":"gastronomia","providers":["Club El País"],"benefits":[{"provider":"Club El País","product":"Club El País","amount":"20%","days":"Todos los días","conditions":null}],"es_cadena":false,"locations":[{"lat":-34.9002403,"lng":-55.2580772,"address":"El Embarcadero entre Avenida Central y Rambla de los Argentinos, Punta Colorada, Piriápolis, Maldonado, Uruguay","sucursal":"Principal","confidence":0.75,"precision":"zona","source":"nominatim"}]},{"id":65,"merchant":"La Sin Rival","category":"gastronomia","providers":["Club El País"],"benefits":[{"provider":"Club El País","product":"Club El País","amount":"20%","days":"Todos los días","conditions":null}],"es_cadena":false,"locations":[{"lat":-34.9080814,"lng":-56.1961812,"address":"Soriano 929, Centro, Montevideo, Uruguay","sucursal":"Principal","confidence":0.8,"precision":"exacta","source":"nominatim"}]},{"id":66,"merchant":"Las Ánimas Casa de Campo","category":"gastronomia","providers":["Club El País"],"benefits":[{"provider":"Club El País","product":"Club El País","amount":"20%","days":"Todos los días","conditions":null}],"es_cadena":false,"locations":[{"lat":-34.7682073,"lng":-55.2202307,"address":"Ruta 60 Km. 19, Paraje Betete, Nueva Carrara, Maldonado, Uruguay","sucursal":"Principal","confidence":0.7,"precision":"exacta","source":"nominatim"}]},{"id":67,"merchant":"Los Fontanes (Confitería)","category":"gastronomia","providers":["Club El País"],"benefits":[{"provider":"Club El País","product":"Club El País","amount":"20%","days":"Todos los días","conditions":null}],"es_cadena":false,"locations":[{"lat":-34.9022263,"lng":-56.1422788,"address":"Rivera esq. Pedro Bustamante, Montevideo, Uruguay","sucursal":"Principal (Rivera y Pedro Bustamante)","confidence":0.55,"precision":"exacta","source":"nominatim"}]},{"id":68,"merchant":"Los Lagos","category":"gastronomia","providers":["Club El País"],"benefits":[{"provider":"Club El País","product":"Club El País","amount":"20%","days":"Todos los días","conditions":null}],"es_cadena":false,"locations":[{"lat":-34.9071669,"lng":-56.1901931,"address":"Zelmar Michelini 1287, Montevideo, Uruguay","sucursal":"Los Lagos","confidence":0.8,"source":"nominatim"}]},{"id":70,"merchant":"Misushi MVD","category":"gastronomia","providers":["Club El País"],"benefits":[{"provider":"Club El País","product":"Club El País","amount":"20%","days":"Todos los días","conditions":null}],"es_cadena":false,"locations":[{"lat":-34.9262128,"lng":-56.1611766,"address":"Ing. Luis Franzini 907, Punta Carretas, Montevideo, Uruguay","sucursal":"Principal (Punta Carretas)","confidence":0.85,"precision":"zona","source":"nominatim"}]},{"id":71,"merchant":"Moby Dick Pub","category":"gastronomia","providers":["Club El País"],"benefits":[{"provider":"Club El País","product":"Club El País","amount":"20%","days":"Todos los días","conditions":null}],"es_cadena":false,"locations":[{"lat":-34.9618711,"lng":-54.9398018,"address":"Rambla Gral. Artigas 650, Punta del Este, Maldonado, Uruguay","sucursal":"Principal (Puerto)","confidence":0.9,"precision":"exacta","source":"nominatim"}]},{"id":72,"merchant":"Olivia Resto","category":"gastronomia","providers":["Club El País"],"benefits":[{"provider":"Club El País","product":"Club El País","amount":"20%","days":"Todos los días","conditions":null}],"es_cadena":false,"locations":[{"lat":-34.9665348,"lng":-54.9458325,"address":"Calle 21 entre Gorlero y Rambla Artigas, Punta del Este, Maldonado, Uruguay","sucursal":"Principal","confidence":0.75,"precision":"calle","source":"nominatim"}]},{"id":74,"merchant":"Sushi Go","category":"gastronomia","providers":["Club El País"],"benefits":[{"provider":"Club El País","product":"Club El País","amount":"20%","days":"Todos los días","conditions":null}],"es_cadena":false,"locations":[{"lat":-34.9092838,"lng":-56.1483255,"address":"26 de Marzo 1236, Pocitos, Montevideo, Uruguay","sucursal":"Principal (Pocitos)","confidence":0.65,"precision":"exacta","source":"nominatim"}]},{"id":75,"merchant":"Sushimi Asian Premium & Delivery","category":"gastronomia","providers":["Club El País","Itaú"],"benefits":[{"provider":"Club El País","product":"Club El País","amount":"20%","days":"Todos los días","conditions":null},{"provider":"Itaú","product":"crédito Itaú + débito Volar + débito Junior","amount":"15%","days":"todos los días","conditions":"Programa restaurantes Punta del Este"}],"es_cadena":false,"locations":[{"lat":-34.919389,"lng":-54.9217676,"address":"Pedragosa Sierra esq. Parada 5, Av. Roosevelt, Torres Place Lafayette Local 15, Punta del Este, Maldonado, Uruguay","sucursal":"Torres Place Lafayette","confidence":0.85,"precision":"exacta","source":"nominatim"}]},{"id":76,"merchant":"Tomás Restaurant (SORO Montevideo, Curio Collection by Hilton)","category":"gastronomia","providers":["Club El País"],"benefits":[{"provider":"Club El País","product":"Club El País","amount":"20%","days":"Todos los días","conditions":null}],"es_cadena":false,"locations":[{"lat":-34.9173534,"lng":-56.150134,"address":"Federico Abadie 2912, Pocitos, Montevideo, Uruguay","sucursal":"Principal","confidence":0.75,"precision":"exacta","source":"nominatim"}]},{"id":77,"merchant":"View Point Restaurante","category":"gastronomia","providers":["Club El País"],"benefits":[{"provider":"Club El País","product":"Club El País","amount":"20%","days":"Todos los días","conditions":null}],"es_cadena":false,"locations":[{"lat":-34.9613644,"lng":-54.9432875,"address":"Calle 27 y 20, Edificio Walmer (3er y 4to piso), Punta del Este, Maldonado, Uruguay","sucursal":"Principal","confidence":0.7,"precision":"exacta","source":"nominatim"}]},{"id":78,"merchant":"Watashi Sushi & Wok","category":"gastronomia","providers":["Club El País","Itaú"],"benefits":[{"provider":"Club El País","product":"Club El País","amount":"20%","days":"Todos los días","conditions":null},{"provider":"Itaú","product":"crédito Itaú + débito Volar + débito Junior","amount":"15%","days":"todos los días","conditions":"Programa restaurantes Punta del Este"}],"es_cadena":false,"locations":[{"lat":-34.9665348,"lng":-54.9458325,"address":"Calle 27 (Los Muergos) entre Calle 22 y Av. Juan Gorlero, Punta del Este, Maldonado, Uruguay","sucursal":"Principal","confidence":0.8,"precision":"calle","source":"nominatim"}]},{"id":79,"merchant":"Zule - Panadería y Café","category":"gastronomia","providers":["Club El País"],"benefits":[{"provider":"Club El País","product":"Club El País","amount":"20%","days":"Todos los días","conditions":null}],"es_cadena":false,"locations":[{"lat":-34.9632342,"lng":-54.9439981,"address":"Camino a la Laguna entre Las Orquídeas y Dr. Elbio Rivero, Punta del Este, Maldonado, Uruguay","sucursal":"Principal","confidence":0.65,"precision":"ciudad","source":"nominatim"}]},{"id":80,"merchant":"Sushi Company","category":"gastronomia","providers":["Club El País"],"benefits":[{"provider":"Club El País","product":"Club El País","amount":"20%","days":"Todos los días","conditions":"Take Away"}],"es_cadena":false,"locations":[{"lat":-34.869977,"lng":-56.0724472,"address":"Camino Carrasco 6955, Carrasco, Montevideo, Uruguay","sucursal":"Carrasco (Principal)","confidence":0.7,"precision":"exacta","source":"nominatim"}]},{"id":81,"merchant":"Alma (Boutique de objetos/accesorios, Punta Carretas Shopping)","category":"moda","providers":["Club El País"],"benefits":[{"provider":"Club El País","product":"Club El País","amount":"20%","days":"Lunes a Miércoles","conditions":null}],"es_cadena":false,"locations":[{"lat":-34.9237331,"lng":-56.159439,"address":"José Ellauri 350 esq. Solano García, Punta Carretas Shopping (Nivel 2), Punta Carretas, Montevideo, Uruguay","sucursal":"Punta Carretas Shopping, Nivel 2","confidence":0.45,"precision":"exacta","source":"nominatim"}]},{"id":82,"merchant":"Amadeus (tienda multimarca masculina - Kevingston, El Ganso, Blue Banana, Brixton)","category":"moda","providers":["Club El País"],"benefits":[{"provider":"Club El País","product":"Club El País","amount":"20%","days":"Lunes a Miércoles","conditions":null}],"es_cadena":false,"locations":[{"lat":-34.9116671,"lng":-56.1532021,"address":"José Ellauri esq. Montero, Punta Carretas, Montevideo, Uruguay","sucursal":"Punta Carretas","confidence":0.85,"precision":"exacta","source":"nominatim"}]},{"id":83,"merchant":"Amén Shoes","category":"calzado","providers":["Club El País"],"benefits":[{"provider":"Club El País","product":"Club El País","amount":"20%","days":"Lunes a Miércoles","conditions":null}],"es_cadena":false,"locations":[{"lat":-34.9223031,"lng":-56.1603987,"address":"Solano García 2454, Punta Carretas, Montevideo, Uruguay","sucursal":"Showroom Punta Carretas","confidence":0.85,"precision":"exacta","source":"nominatim"}]},{"id":84,"merchant":"Araliz (lencería y ropa interior)","category":"moda","providers":["Club El País"],"benefits":[{"provider":"Club El País","product":"Club El País","amount":"20%","days":"Lunes a Miércoles","conditions":null}],"es_cadena":false,"locations":[{"lat":-34.9071669,"lng":-56.1901931,"address":"Zelmar Michelini 1287, Centro, Montevideo, Uruguay","sucursal":"Casa Central","confidence":0.75,"precision":"exacta","source":"nominatim"}]},{"id":85,"merchant":"Baby City","category":"ninos","providers":["Club El País"],"benefits":[{"provider":"Club El País","product":"Club El País","amount":"20%","days":"Lunes a Miércoles","conditions":null}],"es_cadena":false,"locations":[{"lat":-34.9231635,"lng":-56.1579787,"address":"Solano García 2529, Punta Carretas, Montevideo, Uruguay","sucursal":"Local Punta Carretas","confidence":0.7,"precision":"exacta","source":"nominatim"}]},{"id":86,"merchant":"Ballon (tienda para bebés y niños)","category":"ninos","providers":["Club El País"],"benefits":[{"provider":"Club El País","product":"Club El País","amount":"20%","days":"Lunes a Miércoles","conditions":null}],"es_cadena":false,"locations":[{"lat":-34.9179781,"lng":-56.1550176,"address":"Solano Antuña 2711 bis, Carrasco, Montevideo, Uruguay","sucursal":"Local Carrasco","confidence":0.6,"precision":"exacta","source":"nominatim"}]},{"id":87,"merchant":"Be Ganesha","category":"moda","providers":["Club El País"],"benefits":[{"provider":"Club El País","product":"Club El País","amount":"20%","days":"Lunes a Miércoles","conditions":null}],"es_cadena":false,"locations":[{"lat":-34.9225644,"lng":-56.160017,"address":"Solano García 2476, Punta Carretas, Montevideo, Uruguay","sucursal":"Punta Carretas","confidence":0.85,"precision":"exacta","source":"nominatim"}]},{"id":88,"merchant":"Benson & Thomas","category":"moda","providers":["Club El País"],"benefits":[{"provider":"Club El País","product":"Club El País","amount":"20%","days":"Lunes a Miércoles","conditions":null}],"es_cadena":false,"locations":[{"lat":-34.9237331,"lng":-56.159439,"address":"José Ellauri 350, local 5103/5104, Punta Carretas, Montevideo, Uruguay","sucursal":"Punta Carretas Shopping","confidence":0.85,"precision":"exacta","source":"nominatim"}]},{"id":89,"merchant":"Black","category":"moda","providers":["Club El País"],"benefits":[{"provider":"Club El País","product":"Club El País","amount":"20%","days":"Lunes a Miércoles","conditions":null}],"es_cadena":true,"locations":[{"lat":-34.9237331,"lng":-56.159439,"address":"José Ellauri 350, Punta Carretas, Montevideo, Uruguay","sucursal":"Punta Carretas Shopping","confidence":0.75,"source":"nominatim"}]},{"id":90,"merchant":"Blue Glass (ex Casa Peñalba, ropa masculina)","category":"moda","providers":["Club El País"],"benefits":[{"provider":"Club El País","product":"Club El País","amount":"20%","days":"Lunes a Miércoles","conditions":null}],"es_cadena":false,"locations":[{"lat":-31.3879779,"lng":-57.9620227,"address":"Uruguay 1040, Salto, Uruguay","sucursal":"Local Salto","confidence":0.75,"precision":"exacta","source":"nominatim"}]},{"id":91,"merchant":"Brooksfield","category":"moda","providers":["Club El País"],"benefits":[{"provider":"Club El País","product":"Club El País","amount":"20%","days":"Lunes a Miércoles","conditions":null}],"es_cadena":false,"locations":[{"lat":-34.8880741,"lng":-56.1480269,"address":"Av. Dr. Luis Alberto de Herrera 1290, local 210, Buceo, Montevideo, Uruguay","sucursal":"Montevideo Shopping","confidence":0.85,"precision":"exacta","source":"nominatim"}]},{"id":92,"merchant":"Bubba (mochilas, carteras y accesorios)","category":"moda","providers":["Club El País"],"benefits":[{"provider":"Club El País","product":"Club El País","amount":"20%","days":"Lunes a Miércoles","conditions":null}],"es_cadena":false,"locations":[{"lat":-34.9237331,"lng":-56.159439,"address":"José Ellauri 350, local 122, Punta Carretas, Montevideo, Uruguay","sucursal":"Punta Carretas Shopping","confidence":0.7,"precision":"exacta","source":"nominatim"}]},{"id":93,"merchant":"Cantegrill Joyas","category":"moda","providers":["Club El País","Itaú"],"benefits":[{"provider":"Club El País","product":"Club El País","amount":"20%","days":"Lunes a Miércoles","conditions":null},{"provider":"Itaú","product":"crédito","amount":"15%","days":null,"conditions":null}],"es_cadena":false,"locations":[{"lat":-34.9065545,"lng":-56.1957432,"address":"Wilson Ferreira Aldunate 1330, Centro, Montevideo, Uruguay","sucursal":"Casa Central (no se halló sucursal confirmada en Punta del Este pese al hint)","confidence":0.4,"precision":"exacta","source":"nominatim"}]},{"id":94,"merchant":"Caro Criado (ropa femenina)","category":"moda","providers":["Club El País"],"benefits":[{"provider":"Club El País","product":"Club El País","amount":"20%","days":"Lunes a Miércoles","conditions":null}],"es_cadena":false,"locations":[{"lat":-34.922528,"lng":-56.1594545,"address":"Solano García 2487, Punta Carretas, Montevideo, Uruguay","sucursal":"Punta Carretas","confidence":0.8,"precision":"exacta","source":"nominatim"}]},{"id":95,"merchant":"CAT Lifestyle (Caterpillar - calzado)","category":"calzado","providers":["Club El País"],"benefits":[{"provider":"Club El País","product":"Club El País","amount":"20%","days":"Lunes a Miércoles","conditions":null},{"provider":"Club El País","product":"Club El País + Santander","amount":"15% adicional","days":null,"conditions":"Descuento adicional pagando con Santander"}],"es_cadena":false,"locations":[{"lat":-34.9061384,"lng":-56.1962186,"address":"18 de Julio 935, Centro, Montevideo, Uruguay","sucursal":"Local Centro","confidence":0.75,"precision":"exacta","source":"nominatim"}]},{"id":96,"merchant":"Clary Sage (indumentaria femenina)","category":"moda","providers":["Club El País"],"benefits":[{"provider":"Club El País","product":"Club El País","amount":"20%","days":"Lunes a Miércoles","conditions":null}],"es_cadena":false,"locations":[{"lat":-34.9084813,"lng":-56.2076421,"address":"Sarandí 362, Ciudad Vieja, Montevideo, Uruguay","sucursal":"Ciudad Vieja","confidence":0.7,"precision":"exacta","source":"nominatim"}]},{"id":97,"merchant":"Club House","category":"moda","providers":["Club El País"],"benefits":[{"provider":"Club El País","product":"Club El País","amount":"20%","days":"Lunes a Miércoles","conditions":null}],"es_cadena":false,"locations":[{"lat":-34.9237331,"lng":-56.159439,"address":"José Ellauri 350, local T2BN2, Punta Carretas, Montevideo, Uruguay","sucursal":"Punta Carretas Shopping","confidence":0.85,"precision":"exacta","source":"nominatim"}]},{"id":98,"merchant":"Cuatroases (indumentaria masculina)","category":"moda","providers":["Club El País"],"benefits":[{"provider":"Club El País","product":"Club El País","amount":"20%","days":"Lunes a Miércoles","conditions":null}],"es_cadena":false,"locations":[{"lat":-34.9023295,"lng":-56.1774859,"address":"Av. 18 de Julio 1797, Centro, Montevideo, Uruguay","sucursal":"Local Centro (Universidad)","confidence":0.65,"precision":"exacta","source":"nominatim"}]},{"id":99,"merchant":"D House (tienda multimarca)","category":"moda","providers":["Club El País"],"benefits":[{"provider":"Club El País","product":"Club El País","amount":"20%","days":"Lunes a Miércoles","conditions":null}],"es_cadena":false,"locations":[{"lat":-34.8874519,"lng":-56.1159562,"address":"Av. Italia 4348, Malvín, Montevideo, Uruguay","sucursal":"Local Malvín","confidence":0.8,"precision":"exacta","source":"nominatim"}]},{"id":100,"merchant":"Don Baez (lana sostenible)","category":"moda","providers":["Club El País"],"benefits":[{"provider":"Club El País","product":"Club El País","amount":"20%","days":"Lunes a Miércoles","conditions":null}],"es_cadena":false,"locations":[{"lat":-34.9211547,"lng":-56.1573272,"address":"José Ellauri 514 esq. Montero, Punta Carretas, Montevideo, Uruguay","sucursal":"Punta Carretas","confidence":0.85,"precision":"exacta","source":"nominatim"}]},{"id":101,"merchant":"El Volcán (tienda de ropa, fundada 1954 en Mercedes)","category":"moda","providers":["Club El País"],"benefits":[{"provider":"Club El País","product":"Club El País","amount":"20%","days":"Lunes a Miércoles","conditions":null}],"es_cadena":false,"locations":[{"lat":-34.9227343,"lng":-56.1595232,"address":"Solano García 2494, Punta Carretas, Montevideo, Uruguay","sucursal":"Local Punta Carretas (Montevideo)","confidence":0.5,"precision":"exacta","source":"nominatim"}]},{"id":102,"merchant":"Óptica Estela Jinchuk","category":"moda","providers":["Club El País"],"benefits":[{"provider":"Club El País","product":"Club El País","amount":"25%","days":"Lunes a Miércoles","conditions":null}],"es_cadena":false,"locations":[{"lat":-34.9146329,"lng":-56.1589775,"address":"Sarmiento 2494 esq. Franzini, Montevideo, Uruguay","sucursal":"Casa Central","confidence":0.75,"precision":"exacta","source":"nominatim"}]},{"id":103,"merchant":"Fahoma (bijouterie de diseño)","category":"moda","providers":["Club El País"],"benefits":[{"provider":"Club El País","product":"Club El País","amount":"20%","days":"Lunes a Miércoles","conditions":null}],"es_cadena":false,"locations":[{"lat":-34.9223068,"lng":-56.1583329,"address":"Joaquín Núñez 2910, Carrasco, Montevideo, Uruguay","sucursal":"Local Carrasco","confidence":0.75,"precision":"exacta","source":"nominatim"}]},{"id":104,"merchant":"GAP Uruguay","category":"moda","providers":["Club El País"],"benefits":[{"provider":"Club El País","product":"Club El País","amount":"20%","days":"Lunes a Miércoles","conditions":null}],"es_cadena":false,"locations":[{"lat":-34.8880741,"lng":-56.1480269,"address":"Av. Dr. Luis Alberto de Herrera 1290, Buceo, Montevideo, Uruguay","sucursal":"Montevideo Shopping","confidence":0.85,"precision":"exacta","source":"nominatim"}]},{"id":105,"merchant":"Garnié (carteras, calzado y accesorios de cuero)","category":"moda","providers":["Club El País"],"benefits":[{"provider":"Club El País","product":"Club El País","amount":"20%","days":"Lunes a Miércoles","conditions":null}],"es_cadena":false,"locations":[{"lat":-34.9062018,"lng":-56.2031153,"address":"Juan Carlos Gómez 1386, Ciudad Vieja, Montevideo, Uruguay","sucursal":"Local Principal","confidence":0.8,"precision":"exacta","source":"nominatim"}]},{"id":106,"merchant":"Gladys T (vestidos de fiesta y novia)","category":"moda","providers":["Club El País"],"benefits":[{"provider":"Club El País","product":"Club El País","amount":"20%","days":"Lunes a Miércoles","conditions":null}],"es_cadena":false,"locations":[{"lat":-34.9146062,"lng":-56.151868,"address":"Bulevar España 2840, Montevideo, Uruguay","sucursal":"Local Principal","confidence":0.75,"precision":"exacta","source":"nominatim"}]},